Event_Title,Date,Time,Venue,Address,url,Latitude,Longitude
Madam Nightingale with special guest Aj‚ÄôZho,2024-12-05,19:00,Mamma Chen's,"42A Albert St, Footscray VIC 3011, Australia",https://www.facebook.com/events/1577988486234023/,-37.8047552,144.89727240000002
Dance Concert,2024-12-05,10:00,The Timber Yard,"351 Plummer Street Port Melbourne, VIC 3207",https://www.eventbrite.com.au/e/dance-concert-tickets-941759838027?aff=ebdssbdestsearch,-37.8331097,144.9214734
Adult Beginner Ballet Classes,2024-12-05,06:30,Dance Factory,"Melbourne VIC, Australia 225 Swan St Richmond Melbourne, VIC",https://www.eventbrite.com.au/e/adult-beginner-ballet-classes-tickets-933188220087?aff=ebdssbdestsearch,-37.8257354,144.9998261
Adult Beginner Jazz Classes,2024-12-05,07:30,Dance Factory,"Melbourne VIC, Australia 225 Swan St Richmond Melbourne, VIC",https://www.eventbrite.com.au/e/adult-beginner-jazz-classes-tickets-933189293297?aff=ebdssbdestsearch,-37.8257354,144.9998261
Adult Dance Acro Classes,2024-12-05,10:30,Dance Factory,"Melbourne VIC, Australia 225 Swan St Richmond Melbourne, VIC",https://www.eventbrite.com.au/e/adult-dance-acro-classes-tickets-933185371567?aff=ebdssbdestsearch,-37.8257354,144.9998261
Wreath Making Workshop,2024-12-05,18:30,Town & Country Gardens,"1311 High Street Malvern, VIC 3144",https://www.eventbrite.com.au/e/wreath-making-workshop-tickets-1089239908889?aff=ebdssbdestsearch,-37.8575834,145.0378181
DBSC - Daima Celebration Event 2 - Gameology BRUNSWICK - 05/12/2024,2024-12-05,06:30,Gameology Brunswick,"36 Hope Street Brunswick, VIC 3056",https://www.eventbrite.com.au/e/dbsc-daima-celebration-event-2-gameology-brunswick-05122024-tickets-1052968686687?aff=ebdssbdestsearch,-37.7636924,144.9595539
Bachata Vibes Thursdays - 5 levels of Bachata classes & party,2024-12-05,18:30,Second Story Studios,"222A Johnston Street Collingwood, VIC 3066",https://www.eventbrite.com.au/e/bachata-vibes-thursdays-5-levels-of-bachata-classes-party-tickets-1004019438167?aff=ebdssbdestsearch,-37.799574,144.9924468
Intro to Saddlery: Barcoo Bridle Making 2 Day Workshop,2024-12-05,10:00,Leffler Leather,"171 Kensington Road West Melbourne, VIC 3003",https://www.eventbrite.com.au/e/intro-to-saddlery-barcoo-bridle-making-2-day-workshop-tickets-1002893530547?aff=ebdssbdestsearch,-37.8000316,144.9177826
VALENTA: CALL ME UR VANDAL,2024-12-05,19:30,Bad Decisions Bar,"46 Johnston Street Fitzroy, VIC 3065",https://www.eventbrite.com.au/e/valenta-call-me-ur-vandal-tickets-1070317250709?aff=ebdssbdestsearch,-37.7982682,144.9762913
Requiem for Men,2024-12-05,19:00,The Butterfly Club,"5 Carson Place Melbourne, VIC 3000",https://www.eventbrite.co.uk/e/requiem-for-men-tickets-1001061250147?aff=ebdssbdestsearch,-37.8154472,144.9652725
Beaded Jewellery Making Workshop for Beginners,2024-12-05,18:00,Abbotsford Convent,"1 Saint Heliers Street Abbotsford, VIC 3067",https://www.eventbrite.com.au/e/beaded-jewellery-making-workshop-for-beginners-tickets-1068847494629?aff=ebdssbdestsearch,-37.8026835,145.0027506
Flesh & Blood - Skirmish Season 10 - Gameology CLAYTON SOUTH - 05/12/2024,2024-12-05,06:30,Gameology,"12 Eileen Road Clayton South, VIC 3169",https://www.eventbrite.com.au/e/flesh-blood-skirmish-season-10-gameology-clayton-south-05122024-tickets-1043391701667?aff=ebdssbdestsearch,-37.9512104,145.1347381
Deep Roots Collective - Brasileiros Empreendendores em Melbourne,2024-12-05,17:00,Multicultural Hub,"506 Elizabeth Street Melbourne, VIC 3000",https://www.eventbrite.com.au/e/deep-roots-collective-brasileiros-empreendendores-em-melbourne-tickets-1082768201839?aff=ebdssbdestsearch,-37.8068236,144.9600646
ZIQO Launch party,2024-12-05,19:00,The Emerson Rooftop Bar and Club,"141-145 Commercial Road South Yarra, VIC 3141",https://www.eventbrite.com/e/ziqo-launch-party-tickets-1095963027919?aff=ebdssbdestsearch,-37.8462997,144.9911964
Comedy @ Sonder,2024-12-05,20:30,Sonder Bar,"438 Centre Road Bentleigh, VIC 3204",https://www.eventbrite.com.au/e/comedy-sonder-tickets-1018428806977?aff=ebdssbdestsearch,-37.918552,145.038282
Madam Nightingale with special guest Aj‚ÄôZho,2024-12-05,19:00,Mamma Chen's,"42A Albert Street Footscray, VIC 3011",https://www.eventbrite.com.au/e/madam-nightingale-with-special-guest-ajzho-registration-1088467207719?aff=ebdssbdestsearch,-37.80225,144.897519
Ty Gray & Friends - Workin' It Out (A Comedy Trial Show),2024-12-05,19:00,Caz Reitop's Dirty Secrets,"80 Smith Street Collingwood, VIC 3066",https://www.eventbrite.com.au/e/ty-gray-friends-workin-it-out-a-comedy-trial-show-tickets-1080122307899?aff=ebdssbdestsearch,-37.8059003,144.9831738
Private Wheel Throwing Workshop with Kiln Firing,2024-12-05,16:00,"Heer Pottery - unit 3/29-31 Clarice Rd, Box Hill South VIC","29-31 Clarice Road #unit 3 Box Hill South, VIC 3128",https://www.eventbrite.com.au/e/private-wheel-throwing-workshop-with-kiln-firing-tickets-1057774515049?aff=ebdssbdestsearch,-37.8333911,145.1339829
"Blue Lotus Ceremony: Meditation, Herbal Energetics + Sound Healing",2024-12-05,18:00,Tree of Life Integral Centre,"3 Denmark Street Kew, VIC 3101",https://www.eventbrite.com.au/e/blue-lotus-ceremony-meditation-herbal-energetics-sound-healing-tickets-1040482239387?aff=ebdssbdestsearch,-37.8132659,145.027641
LEGO¬Æ Robotics Open Day,2024-12-05,16:00,Balwyn Library,"336 Whitehorse Road Balwyn, VIC 3103",https://www.eventbrite.com.au/e/lego-robotics-open-day-tickets-1098280970949?aff=ebdssbdestsearch,-37.8135133,145.0855371
"""FREE-ish"" LIVE JAZZ: in Melbourne's Historic Bluestone Cellar c1854",2024-12-05,19:00,"Life's Too Short Bar, Tribeca Arcade, Victoria Parade, East Melbourne VIC, Australia","412 Victoria Parade #Shop 2 East Melbourne, VIC 3002",https://www.eventbrite.com.au/e/free-ish-live-jazz-in-melbournes-historic-bluestone-cellar-c1854-tickets-805465849037?aff=ebdssbdestsearch,-37.8096207,144.985273
City LOVE Scavenger Hunt Date Night For Couples - Melbourne Vic Area,2024-12-05,13:00,**Recommended starting point or another city spot of your choice! (MUST USE PDF TICKETS-NO QR CODES),"33 Lincoln Square South Carlton, VIC 3053",https://www.eventbrite.com/e/city-love-scavenger-hunt-date-night-for-couples-melbourne-vic-area-tickets-910283571667?aff=ebdssbdestsearch,-37.8033885,144.9623452
1-2-3 Magic¬Æ & Emotion Coaching,2024-12-05,08:30,489 Elizabeth St,"489 Elizabeth Street Melbourne, VIC 3000",https://www.eventbrite.com/e/1-2-3-magic-emotion-coaching-tickets-1056205532179?aff=ebdssbdestsearch,-37.8074904,144.9597627
"FeelGoodFlows - Sunrise Yoga Thursdays - Meditation, Breathwork, & Mobility",2024-12-05,06:30,South Melbourne Life Saving Club,"72B Beaconsfield Parade Albert Park, VIC 3206",https://www.eventbrite.com.au/e/feelgoodflows-sunrise-yoga-thursdays-meditation-breathwork-mobility-tickets-1044511310447?aff=ebdssbdestsearch,-37.8471341,144.9466738
Private Hand Building Workshop with Kiln Firing,2024-12-05,02:30,"Heer Pottery - unit 3/29-31 Clarice Rd, Box Hill South VIC","29-31 Clarice Road #unit 3 Box Hill South, VIC 3128",https://www.eventbrite.com.au/e/private-hand-building-workshop-with-kiln-firing-tickets-1059244391489?aff=ebdssbdestsearch,-37.8333911,145.1339829
Business Networking - Williamstown,2024-12-05,06:45,Customs House Hotel Williamstown,"161 Nelson Place Williamstown, VIC 3016",https://www.eventbrite.com.au/e/business-networking-williamstown-tickets-906597145467?aff=ebdssbdestsearch,-37.863157,144.903962
Private Hand Building Workshop with Glaze and Firing,2024-12-05,02:30,"Heer Pottery - unit 3/29-31 Clarice Rd, Box Hill South VIC","29-31 Clarice Road #unit 3 Box Hill South, VIC 3128",https://www.eventbrite.com.au/e/private-hand-building-workshop-with-glaze-and-firing-tickets-1059231723599?aff=ebdssbdestsearch,-37.8333911,145.1339829
Friends On Purpose: Games Night (18-30 y/o),2024-12-05,19:00,Blackwoods Wine & Cocktail Bar,"137 Chapel Street Windsor, VIC 3181",https://www.eventbrite.com.au/e/friends-on-purpose-games-night-18-30-yo-tickets-1082689797329?aff=ebdssbdestsearch,-37.8531136,144.9929717
Esther Swift Tiny House Gig,2024-12-05,19:30,105 Park St,"105 Park Street South Melbourne, VIC 3205",https://www.eventbrite.com.au/e/esther-swift-tiny-house-gig-tickets-1043719742847?aff=ebdssbdestsearch,-37.8340094,144.966539
Pentridge Prison H Division Tours - November 2024 - January 2025,2024-12-05,10:30,Pentridge,"1 Champ Street Coburg, VIC 3058",https://www.eventbrite.com.au/e/pentridge-prison-h-division-tours-november-2024-january-2025-tickets-909575273127?aff=ebdssbdestsearch,-37.7370508,144.9677596
Pentridge Prison - H Division Night Tours November 2024 - January 2025,2024-12-05,18:30,Pentridge Prison,"1 Champ Street Coburg, VIC 3058",https://www.eventbrite.com.au/e/pentridge-prison-h-division-night-tours-november-2024-january-2025-tickets-909558482907?aff=ebdssbdestsearch,-37.7370508,144.9677596
"Snap Crackle and Pop, A Wine Animal Sparkling Spectacular",2024-12-05,18:30,All Nations Hotel,"64 Lennox Street Richmond, VIC 3121",https://www.eventbrite.com.au/e/snap-crackle-and-pop-a-wine-animal-sparkling-spectacular-tickets-1078756312169?aff=ebdssbdestsearch,-37.8132799,144.9953202
Flesh & Blood - Skirmish Season 10 - Gameology BRUNSWICK - 05/12/2024,2024-12-05,06:30,Gameology Brunswick,"36 Hope Street Brunswick, VIC 3056",https://www.eventbrite.com.au/e/flesh-blood-skirmish-season-10-gameology-brunswick-05122024-tickets-1052962799077?aff=ebdssbdestsearch,-37.7636924,144.9595539
(Last Tickets!) The Everly Brothers & Buddy Holly Tribute | Performed By RICK GAUCI & STEVE BURNS ,2024-12-05,0:00,arcobar heatherton,"8 Arco Ln, Heatherton VIC 3202, Australia",https://www.facebook.com/events/1138196443943231/,-37.94673685,145.07837928457485
"Bottomless Cocktails at Top Yard, Melb CBD",2024-12-05,17:00,Top Yard Rooftop,"2 Geddes Lane Melbourne, VIC 3000",https://www.eventbrite.com.au/e/bottomless-cocktails-at-top-yard-melb-cbd-tickets-859288333537?aff=ebdssbdestsearch,-37.8189705,144.957155
"Waxahatchee with Good Morning | Forum, Melbourne - SOLD OUT!",2024-12-05,19:00,Forum Melbourne,"154 Flinders St, Melbourne VIC 3000, Australia",https://www.facebook.com/events/1949784432153887/,-37.81644145,144.9693768124984
VALENTA: CALL ME UR VANDAL,2024-12-05,0:00,Bad Decisions Bar,"46 Johnston St, Fitzroy VIC 3065, Australia",https://www.facebook.com/events/1119511592930893/,-37.798246,144.9762881
Gia Ransome 'A Woman Scorned' Tour - Melbourne,2024-12-05,19:30,Bergy Bandroom,"64 Sydney Rd, Brunswick VIC 3056, Australia",https://www.facebook.com/events/581433061161306/,-37.776327,144.9607158
Blusher - Melbourne Headline Show,2024-12-05,0:00,Northcote Social Club,"301 High St, Northcote VIC 3070, Australia",https://www.facebook.com/events/3742447942677245/,-37.771471,144.998414
"Lavender vs Rose & The GoldenFingers Dancers - The goodbye, farewell, love to Open Studio SHOW! ",2024-12-05,0:00,Open Studio,"204 High St, Northcote VIC 3070, Australia",https://www.facebook.com/events/930107725183916/,-37.7742382,144.9981587
Violent Femmes - Sideshow,2024-12-05,19:30,Palais Theatre,"Lower Esplanade, St Kilda VIC 3182, Australia",https://www.facebook.com/events/1986012785160740/,-37.86708671,144.97599656199426
B# Big Band with Ross Wilson,2024-12-05,18:00,Bird's Basement,"11 Singers Ln, Melbourne VIC 3000, Australia",https://www.facebook.com/events/1188540485786119/,-37.81114416,144.95680390283175
Anthony B In Conversation - Hosted by Stick Mareebo ,2024-12-05,0:00,Wax Music Lounge,"250 Flinders St, Melbourne VIC 3000, Australia",https://www.facebook.com/events/1258076311797465/,-37.8176298,144.9661635
3 Base Hit @ BAR OUSSOU!,2024-12-05,20:00,Bar Oussou,"653 Sydney Rd, Brunswick VIC 3056, Australia",https://www.facebook.com/events/945429294106004/,-37.7618155,144.9628753
MIKE (US) Melbourne ,2024-12-05,0:00,The Night Cat,"137-141 Johnston St, Fitzroy VIC 3065, Australia",https://www.facebook.com/events/1017555586818845/,-37.7982971,144.978128
ùó¶ùó¢ùóüùóó ùó¢ùó®ùóß | Imminence // Melbourne // Good Things Festival Sideshow // Stay Gold,2024-12-05,19:00,Stay Gold,"133 Sydney Rd, Brunswick VIC 3056, Australia",https://www.facebook.com/events/1092643912323747/,-37.7743469,144.9607404
Riley Catherall (Band Show) St Kilda ALBUM LAUNCH George Lane,2024-12-05,0:00,George Lane St Kilda,"1 George Ln, St Kilda VIC 3182, Australia",https://www.facebook.com/events/2888228231341123/,-37.85997305,144.9780306
"WAH Presents: Edward Roussac, Damage, Gwot Lik & Clean Beast",2024-12-05,19:00,The Penny Black,"420 Sydney Rd, Brunswick VIC 3056, Australia",https://www.facebook.com/events/938047864914145/,-37.7679775,144.9621651
Bill Barber and the Holding Cell  & Thursday Night Jam!,2024-12-05,0:00,Hume Blues Club Inc,"27 Ballantyne St, Thornbury VIC 3071, Australia",https://www.facebook.com/events/393907173459395/,-37.7588241,144.9985126
AM//PM x Good Things Pre-Party // Melbourne,2024-12-05,0:00,Stay Gold,"133 Sydney Rd, Brunswick VIC 3056, Australia",https://www.facebook.com/events/543271131989367/,-37.7743469,144.9607404
Fotis Vergopoulos | Brunswick Ballroom,2024-12-05,18:30,Brunswick Ballroom,"314 Sydney Rd, Brunswick VIC 3056, Australia",https://www.facebook.com/events/1498695320776780/,-37.7704205,144.9617083
Professor Kate Crawford: Mapping Planetary AI,2024-12-05,19:30,State Library Victoria,"328 Swanston St Conversation Quarter Melbourne, VIC 3000",https://www.eventbrite.com.au/e/professor-kate-crawford-mapping-planetary-ai-tickets-1070309678059?aff=ebdssbdestsearch,,
Learning More About BPD: A Workshop For Families & Friends (1 day),2024-12-05,9:30,Spectrum,"110 Church Street Richmond, VIC 3121",https://www.eventbrite.com.au/e/learning-more-about-bpd-a-workshop-for-families-friends-1-day-registration-763224193107?aff=ebdssbdestsearch,-37.8142371,144.9995624
Women in Digital's Melbourne Jingle & Mingle!,2024-12-05,18:00,Oche Melbourne,"263-269 Elizabeth Street Melbourne, VIC 3000",https://www.eventbrite.com.au/e/women-in-digitals-melbourne-jingle-mingle-tickets-1073945482849?aff=ebdssbdestsearch,-37.8125796,144.9620973
Fish Talk 2024 Year End Celebration,2024-12-05,17:30,380 Collins St,"380 Collins Street Melbourne, VIC 3000",https://www.eventbrite.com.au/e/fish-talk-2024-year-end-celebration-tickets-1026537630687?aff=ebdssbdestsearch,-37.8164941,144.961916
Mixed Coffee Incense Making Workshop,2024-12-05,11:00,HEER POTTERY ART,"31 Clarice Road #unit3/29 Box Hill South, VIC 3128",https://www.eventbrite.com.au/e/halloween-special-mixed-coffee-incense-making-workshop-tickets-1029583460847?aff=ebdssbdestsearch,-37.833062,145.1337404
Melbourne speed dating for ages 25-39 by Cheeky Events Australia,2024-12-05,19:00,Bar Blanco,"102 Chapel Street Windsor Melbourne, VIC 3181",https://www.eventbrite.com.au/e/melbourne-speed-dating-for-ages-25-39-by-cheeky-events-australia-tickets-919898941497?aff=ebdssbdestsearch,-37.854455,144.993076
RICS Victoria 2024 Christmas Curry Night,2024-12-05,17:30,Gaylords,"33 Spencer Street Melbourne, VIC 3008",https://www.eventbrite.com.au/e/rics-victoria-2024-christmas-curry-night-tickets-998065971187?aff=ebdssbdestsearch,-37.8203025,144.9543906
Keanu Jai  // Thursday Arvo Gig Series,2024-12-05,14:00,Kindred Bandroom,"3 Harris St, Footscray VIC 3011, Australia",https://www.facebook.com/events/462884989589480/,-37.8119001,144.9008247
Rufous Whistler & Possum @ Merri Creek Tavern,2024-12-05,19:30,The Merri Creek Tavern,"111 High St, Northcote VIC 3070, Australia",https://www.facebook.com/events/1615758892623707/,-37.7794356,144.996838
Connor Randles 'Paparella' EP Launch feat. Luke Willard,2024-12-05,19:00,The Workers Club,"51 Brunswick St, Fitzroy VIC 3065, Australia",https://www.facebook.com/events/488956507521551/,-37.8055776,144.9769450659087
"Blanco Tranco, Comedy and Tommy-Carlos & the Masquerade",2024-12-05,0:00,The Old Bar,"74-76 Johnston St, Fitzroy VIC 3065, Australia",https://www.facebook.com/events/452381311217199/,-37.79833,144.97711
Henry Manetta and the Trip return to Paris Cat,2024-12-05,10:02,Paris Cat Jazz Club,"6 Goldie Pl, Melbourne VIC 3000, Australia",https://www.facebook.com/events/1729296501201009/,-37.8133262,144.96060714767358
SNAILGUN - GUN LAWS - THE NOVA FIENDS @ LAST CHANCE,2024-12-05,20:00,The Last Chance,"238 Victoria St, Melbourne VIC 3000, Australia",https://www.facebook.com/events/2117098502038765/,-37.8059962,144.9585654
Chromakopia Release Party - Melbourne,2024-12-06,22:00,Laundry Bar,"50 Johnston Street Fitzroy, VIC 3065",https://www.eventbrite.com.au/e/chromakopia-release-party-melbourne-tickets-1059261221829?aff=ebdssbdestsearch,-37.79831,144.976368
Coffees & Careers,2024-12-06,7:45,Deakin Downtown,"727 Collins Street #Level 12, Tower 2 Docklands, VIC 3008",https://www.eventbrite.com.au/e/coffees-careers-tickets-1089271904589?aff=ebdssbdestsearch,-37.8204513,144.9500917
ESAANZ conference 2024,2024-12-06,8:30,The University of Melbourne,"100 Leicester Street Carlton, VIC 3010",https://www.eventbrite.com.au/e/esaanz-conference-2024-tickets-1007302136807?aff=ebdssbdestsearch,-37.8036874,144.9607534
EMO NEVER SLEEPS: DECEMBER,2024-12-06,22:00,Royal Melbourne Hotel,"629 Bourke Street Melbourne, VIC 3000",https://www.eventbrite.com.au/e/emo-never-sleeps-december-tickets-1059451651409?aff=ebdssbdestsearch,-37.8168528,144.9552468
Twelfth Night,2024-12-06,19:00,St Kilda Botanical Gardens,"11 Herbert Street St Kilda, VIC 3182",https://www.eventbrite.com.au/e/twelfth-night-tickets-1054982734759?aff=ebdssbdestsearch,-37.8713506,144.9824183
"TRASH Indie Sleaze and Party bangers, FRI DEC 6",2024-12-06,21:00,Yah Yahs,"99 Smith Street Fitzroy, VIC 3065",https://www.eventbrite.com.au/e/trash-indie-sleaze-and-party-bangers-fri-dec-6-tickets-1096888084789?aff=ebdssbdestsearch,-37.8058545,144.982966
2010 Throwback Party,2024-12-06,21:00,Pre Drinks Bar,"149 Commercial Road South Yarra, VIC 3141",https://www.eventbrite.com/e/2010-throwback-party-tickets-1079102617979?aff=ebdssbdestsearch,-37.8463162,144.9913793
Join Cherry Picking Fun in Melbourne,2024-12-06,10:00,IDP Melbourne,"373 Lonsdale Street Melbourne, VIC 3000",https://www.eventbrite.com.au/e/join-cherry-picking-fun-in-melbourne-tickets-1056204448939?aff=ebdssbdestsearch,-37.8127529,144.9615244
Bliss Fridays- Bottomless Bliss Drinks Package at Morris Jones,2024-12-06,19:00,Inca | Morris Jones Restaurant & Cocktail Bar,"163 Chapel Street Windsor, VIC 3181",https://www.eventbrite.com/e/bliss-fridays-bottomless-bliss-drinks-package-at-morris-jones-tickets-1095914282119?aff=ebdssbdestsearch,-37.8523323,144.9930063
"Ready, Set, Profits for 2025-Ignite Growth & Profitability in Your Business",2024-12-06,09:00,Treacy Centre,"126 The Avenue Parkville, VIC 3052",https://www.eventbrite.com.au/e/ready-set-profits-for-2025-ignite-growth-profitability-in-your-business-tickets-1079221012099?aff=ebdssbdestsearch,-37.78488919999999,144.9574958
Data Science & Analytics meetup and chat Melbourne,2024-12-06,17:30,215 Queen's Restaurant and Bar Melbourne,"215 Queen Street Melbourne, VIC 3000",https://www.eventbrite.com.au/e/data-science-analytics-meetup-and-chat-melbourne-tickets-951030536937?aff=ebdssbdestsearch,-37.8137947,144.9598607
Comedy On Tap - Stand Up Comedy. St Luja - St Kilda,2024-12-06,7:45,St LuJa | Cocktail Bar,"9 Fitzroy Street St Kilda, VIC 3182",https://www.eventbrite.com/e/comedy-on-tap-stand-up-comedy-st-luja-st-kilda-tickets-1084902234789?aff=ebdssbdestsearch,-37.8627907,144.9733795
GTG UNDERGROUND,2024-12-06,21:00,Avalon The Bar,"387 Brunswick Street Fitzroy, VIC 3065",https://www.eventbrite.com/e/gtg-underground-tickets-1077228351999?aff=ebdssbdestsearch,-37.795606,144.978714
EUPHORIA Friday 6th DECEMBER 2024,2024-12-06,21:00,Chasers Nightclub,"386 Chapel Street South Yarra, VIC 3141",https://www.eventbrite.com.au/e/euphoria-friday-6th-december-2024-tickets-1072004788179?aff=ebdssbdestsearch,-37.8459028,144.9947039
Flamingo Club,2024-12-06,21:00,Pawn & Co,"177 Greville Street Prahran, VIC 3181",https://www.eventbrite.com.au/e/flamingo-club-tickets-934233155517?aff=ebdssbdestsearch,-37.8493266,144.9926289
Human Forest - Old Growth. A Regenerative Touch Experience.,2024-12-06,18:45,Centre of You,"Upstairs, 217 Chapel St Prahran Melbourne, VIC 3181",https://www.eventbrite.com.au/e/human-forest-old-growth-a-regenerative-touch-experience-tickets-1081562856619?aff=ebdssbdestsearch,-37.8509316,144.9933031
Effective Communication Skills & Strategies Session for your Team-Melbourne,2024-12-06,09:00,"Training at your own premises or your preferred venue. Reach us at ""corporate@mangates.com"" for more details.","PH: + 61(0) 2 80155605 Melbourne, VIC 3000",https://www.eventbrite.com/e/effective-communication-skills-strategies-session-for-your-team-melbourne-tickets-840083962747?aff=ebdssbdestsearch,-37.8152065,144.963937
PSYCHIC HARMONY,2024-12-06,21:00,my aeon,"791 Sydney Road Brunswick, VIC 3056",https://www.eventbrite.com.au/e/psychic-harmony-tickets-1056386322929?aff=ebdssbdestsearch,-37.7581868,144.9633301
"IT Social Melbourne | Data, Technology, Cybersecurity, IT",2024-12-06,17:30,215 Queen's Restaurant and Bar Melbourne,"215 Queen Street Melbourne, VIC 3000",https://www.eventbrite.com.au/e/it-social-melbourne-data-technology-cybersecurity-it-tickets-951030647267?aff=ebdssbdestsearch,-37.8137947,144.9598607
Christmas Gift Crafting! Beginners Lacing & Stamping -  Leather Satchel,2024-12-06,08:30,Leffler Leather,"171 Kensington Road West Melbourne, VIC 3003",https://www.eventbrite.com.au/e/christmas-gift-crafting-beginners-lacing-stamping-leather-satchel-tickets-1066852698139?aff=ebdssbdestsearch,-37.8000316,144.9177826
Young IT Professionals in Melbourne Social,2024-12-06,17:30,215 Queen's Restaurant and Bar Melbourne,"215 Queen Street Melbourne, VIC 3000",https://www.eventbrite.com.au/e/young-it-professionals-in-melbourne-social-tickets-951030446667?aff=ebdssbdestsearch,-37.8137947,144.9598607
Mastering Standard Operating Procedures for Efficiency & Growth,2024-12-06,10:00,Melbourne Incubator Center - Online Event,"120 Collins Street Melbourne, VIC 3000",https://www.eventbrite.com/e/mastering-standard-operating-procedures-for-efficiency-growth-tickets-1083356832449?aff=ebdssbdestsearch,-37.8142665,144.9696592
Kingston Collective ‚òïÔ∏è  [FREE] Cafe Co-Working Session *XMAS EDITION*,2024-12-06,09:00,The Corner Store,"1 Swanston Street Mentone, VIC 3194",https://www.eventbrite.com.au/e/kingston-collective-free-cafe-co-working-session-xmas-edition-tickets-1008315226987?aff=ebdssbdestsearch,-37.9810406,145.0654328
"Melbourne Language Exchange | Make Friends, Learn Languages & Culture",2024-12-06,17:30,Imperial Hotel,"2-8 Bourke Street Melbourne, VIC 3000",https://www.eventbrite.com.au/e/melbourne-language-exchange-make-friends-learn-languages-culture-tickets-1059091584439?aff=ebdssbdestsearch,-37.8112554,144.972688
GAS End of Year at the Balmain Hotel,2024-12-06,17:00,Sydney: Balmain Hotel,"72-76 Mullens Rd Balmain, NSW 2041",https://www.eventbrite.com.au/e/gas-end-of-year-at-the-balmain-hotel-tickets-1076101641979?aff=ebdssbdestsearch,-33.8614113,151.1768085
Nocturne (Fri 7:30pm),2024-12-06,19:30,Transit Dance (Brunswick),"64 Dawson Street Brunswick, VIC 3056",https://www.eventbrite.com.au/e/nocturne-fri-730pm-tickets-1045287171067?aff=ebdssbdestsearch,-37.7701752,144.9559255
Witchskull 10th Anniversary Special at Cherry Bar!,2024-12-06,20:00,"Cherry Bar, Little Collins Street, Melbourne VIC, Australia","68 Little Collins Street Melbourne, VIC 3000",https://www.eventbrite.com.au/e/witchskull-10th-anniversary-special-at-cherry-bar-tickets-1040318840657?aff=ebdssbdestsearch,-37.8129293,144.9714986
Loose News,2024-12-06,20:30,The Butterfly Club,"5 Carson Place Melbourne, VIC 3000",https://www.eventbrite.co.uk/e/loose-news-tickets-991601275107?aff=ebdssbdestsearch,-37.8154472,144.9652725
"Unreal x Klangkuenstler ""All Night Long"" Australia",2024-12-06,19:00,PICA - Port Melbourne Industrial Centre of the Arts,"11 Woolboard Road Port Melbourne, VIC 3027",https://www.eventbrite.com.au/e/unreal-x-klangkuenstler-all-night-long-australia-tickets-865232964087?aff=ebdssbdestsearch,-37.8301736,144.9248531
VICTIM (NZ),2024-12-06,21:00,Laundry Bar,"50 Johnston Street Fitzroy, VIC 3065",https://www.eventbrite.com.au/e/victim-nz-tickets-1070333499309?aff=ebdssbdestsearch,-37.79831,144.976368
Kickoff summer 2024,2024-12-06,20:00,30-34 Charles St,"30-34 Charles Street Coburg North, VIC 3058",https://www.eventbrite.com/e/kickoff-summer-2024-tickets-1071515615049?aff=ebdssbdestsearch,-37.7288278,144.9551439
Kickoff Summer 2024,2024-12-06,20:00,Coburg Cycling Club,"32 Charles Street Coburg North, VIC 3058",https://www.eventbrite.com/e/kickoff-summer-2024-tickets-1045406227167?aff=ebdssbdestsearch,-37.7303208,144.9558895
The Bawdies Australia Tour 2024 @NSC,2024-12-06,20:00,Northcote Social Club,"301 High St, Northcote VIC 3070, Australia",https://www.facebook.com/events/1488866081817604/,-37.771471,144.998414
THE ALGORYTHM COMMUNITY - XMAS PARTY,2024-12-06,18:00,Mamma Chen's,"42A Albert St, Footscray VIC 3011, Australia",https://www.facebook.com/events/1609453603333332/,-37.8047552,144.89727240000002
Patrick Topping | 170 Russell - Naarm/Melbourne,2024-12-06,0:00,170 Russell,"170 Russell St, Melbourne VIC 3000, Australia",https://www.facebook.com/events/1444481526247205/,-37.8120109,144.9679369
Litmus (NL) ‚Äî AU Underground,2024-12-06,0:00,Revolver Upstairs,"Level 2/229 Chapel St, Prahran VIC 3181, Australia",https://www.facebook.com/events/2067806156988233/,-37.8505902,144.9933469
Absolutely 80s Xmas Show -Scott Carne - Brian Mannix ‚Äì Wilbur Wilde,2024-12-06,20:00,Lucky 13 Garage,"8 Cochranes Rd, Moorabbin VIC 3189, Australia",https://www.facebook.com/events/406776375645564/,-37.94349189,145.07036236060654
Absolutely 80s Xmas Show- Scott Carne -Brian Mannix -Wilbur Wilde @L13,2024-12-06,20:00,Lucky 13 Garage,"8 Cochranes Rd, Moorabbin VIC 3189, Australia",https://www.facebook.com/events/406507045830906/,-37.94349189,145.07036236060654
SoC- Spring #47,2024-12-06,0:00,Revolver Upstairs,"Level 2/229 Chapel St, Prahran VIC 3181, Australia",https://www.facebook.com/events/1063247328881371/,-37.8505902,144.9933469
Good Things Official Afterparty // Melbourne,2024-12-06,0:00,Stay Gold,"133 Sydney Rd, Brunswick VIC 3056, Australia",https://www.facebook.com/events/1503960333430229/,-37.7743469,144.9607404
Euphoric Beats,2024-12-06,0:00,Bad Decisions Bar,"46 Johnston St, Fitzroy VIC 3065, Australia",https://www.facebook.com/events/913719707091856/,-37.798246,144.9762881
FULTON STREET ‚ÄòHard Truths‚Äô Album Launch,2024-12-06,0:00,Wax Music Lounge,"250 Flinders St, Melbourne VIC 3000, Australia",https://www.facebook.com/events/458819236788714/,-37.8176298,144.9661635
Hedy Blaazer with Jim Dusty at Merri Creek Tavern (Naarm),2024-12-06,20:30,The Merri Creek Tavern,"111 High St, Northcote VIC 3070, Australia",https://www.facebook.com/events/1531114227545847/,-37.7794356,144.996838
VARDOS TRIO - farewell Open Studio show! ,2024-12-06,0:00,Open Studio,"204 High St, Northcote VIC 3070, Australia",https://www.facebook.com/events/2865817033593993/,-37.7742382,144.9981587
1927 - THE REAL 1927 we all remember & LOVE,2024-12-06,0:00,Musicland Melbourne,"1359 Sydney Rd, Fawkner VIC 3060, Australia",https://www.facebook.com/events/1777316096423447/,-37.6916774,144.9585701581541
Devil Dogs @ Mr Boogie Man Bar,2024-12-06,19:00,Mr Boogie Man Bar,"160 Hoddle St, Abbotsford VIC 3067, Australia",https://www.facebook.com/events/1090536999482729/,-37.80245,144.99295304614787
"(Fri, Dec 6) BARB WATERS",2024-12-06,0:00,George Lane St Kilda,"1 George Ln, St Kilda VIC 3182, Australia",https://www.facebook.com/events/1114208440321339/,-37.85997305,144.9780306
EMO NEVER SLEEPS: DECEMBER,2024-12-06,0:00,EMO NEVER SLEEPS,"629 Bourke St, Melbourne VIC 3004, Australia",https://www.facebook.com/events/829633832582459/,-37.8167994,144.9552063
One Intimate Night with Reece Mastin | MEMO Music Hall,2024-12-06,19:00,MEMO Music Hall,"88 Acland St, St Kilda VIC 3182, Australia",https://www.facebook.com/events/2947316355436720/,-37.8671902,144.9786817
BELLHOP vs LEGAL NOISE (TAS),2024-12-06,19:00,The Last Chance,"238 Victoria St, Melbourne VIC 3000, Australia",https://www.facebook.com/events/1279653323081333/,-37.8059962,144.9585654
Richard Marx,2024-12-06,19:00,Palais Theatre,"Lower Esplanade, St Kilda VIC 3182, Australia",https://www.facebook.com/events/1249715083066146/,-37.86708671,144.97599656199426
Ben Camden - 'Sunflowers' EP Launch,2024-12-06,19:30,One2three Bar,"123 Queens Parade, Clifton Hill VIC 3068, Australia",https://www.facebook.com/events/1267768264592686/,-37.7892833,144.9901391
Nerve Melbourne 2024,2024-12-06,22:00,Brown Alley,"585 Lonsdale Street Melbourne, VIC 3000",https://www.eventbrite.com.au/e/nerve-melbourne-2024-tickets-949590128637?aff=ebdssbdestsearch,-37.81452000000001,144.955082
"Sarah Blasko with guest Queenie // Melbourne, Northcote Theatre",2024-12-06,19:30,Northcote Theatre,"216 High St, Northcote VIC 3070, Australia",https://www.facebook.com/events/399039979467353/,-37.7737068,144.9982706
Kevin Borich Express,2024-12-06,18:00,Bird's Basement,"11 Singers Ln, Melbourne VIC 3000, Australia",https://www.facebook.com/events/941943751083077/,-37.81114416,144.95680390283175
BOOTY BALL IV (+FREE BOTTOMLESS BOOZE) ,2024-12-06,0:00,New Guernica,"64 Smith St, Collingwood VIC 3066, Australia",https://www.facebook.com/events/925250086198839/,-37.80624775,144.98331211946754
POSTPONED - EVENT DATE TBA B.I HYPE UP TOUR,2024-12-06,18:30,Festival Hall,"300 Dudley St, West Melbourne VIC 3003, Australia",https://www.facebook.com/events/1496960170949894/,-37.8098193,144.9508057
Blak Roots @ BAR OUSSOU!,2024-12-06,22:00,Bar Oussou,"653 Sydney Rd, Brunswick VIC 3056, Australia",https://www.facebook.com/events/4107469559474728/,-37.7618155,144.9628753
3065 PARTYGIRL with GAY ROBERTO,2024-12-06,23:00,The Night Cat,"137-141 Johnston St, Fitzroy VIC 3065, Australia",https://www.facebook.com/events/1329499038214513/,-37.7982971,144.978128
Brolga with Canisha & Robert Champion,2024-12-06,19:00,Kindred Bandroom,"3 Harris St, Footscray VIC 3011, Australia",https://www.facebook.com/events/1001758158383548/,-37.8119001,144.9008247
Eddie Hale: 'Vanishing Point' Album Launch ‚Äî Denude Records x Revolver Fridays,2024-12-06,0:00,Revolver Upstairs,"Level 2/229 Chapel St, Prahran VIC 3181, Australia",https://www.facebook.com/events/2873600136151357/,-37.8505902,144.9933469
(SOLD OUT) COME TOGETHER: The Music of The Beatles Tribute,2024-12-06,0:00,arcobar heatherton,"8 Arco Ln, Heatherton VIC 3202, Australia",https://www.facebook.com/events/1900967290411691/,-37.94673685,145.07837928457485
Joe Camilleri & The Black Sorrows w special guests Doc Halibut @ Brunswick Ballroom,2024-12-06,18:30,Brunswick Ballroom,"314 Sydney Rd, Brunswick VIC 3056, Australia",https://www.facebook.com/events/819422953234413/,-37.7704205,144.9617083
Mobile Phone Tips for Better Photos and Videos for Social Media,2024-12-06,14:00,Photo Barn,"128 South Parade Blackburn, VIC 3130",https://www.eventbrite.com.au/e/mobile-phone-tips-for-better-photos-and-videos-for-social-media-tickets-1043279837077?aff=ebdssbdestsearch,-37.8207045,145.1525658
"International Conference on Science, Technology, Engineering and Management",2024-12-06,10:00,Quest Melbourne Airport,"20 Annandale Road Melbourne Airport, VIC 3045",https://www.eventbrite.com/e/international-conference-on-science-technology-engineering-and-management-tickets-1048553520807?aff=ebdssbdestsearch,-37.7030882,144.8571234
"BOLLYWOOD CLUB Presents Friday Night at Crown, Melbourne",2024-12-06,21:30,Crown Melbourne,"8 Whiteman Street Southbank, VIC 3006",https://www.eventbrite.com.au/e/bollywood-club-presents-friday-night-at-crown-melbourne-tickets-999153042647?aff=ebdssbdestsearch,-37.82343669999999,144.9580861
Subtle Body Yoga,2024-12-06,10:00,Wild Grace Yoga and Healing,"4a Canterbury Rd Toorak, VIC 3142",https://www.eventbrite.com.au/e/subtle-body-yoga-tickets-1088991806809?aff=ebdssbdestsearch,-37.84860159999999,145.0094229
FESTIVE WREATH WORKSHOP,2024-12-06,17:00,Petal Pop Flowers,"459-475 Sydney Road Shop 20 Brunswick, VIC 3056",https://www.eventbrite.com.au/e/festive-wreath-workshop-tickets-1054580230859?aff=ebdssbdestsearch,-37.766266,144.9620526
Paint in the Dark¬© - UV Light Disco Party,2024-12-06,19:00,Paint for Fun,"252 Graham Street #Unit 1 Port Melbourne, VIC 3207",https://www.eventbrite.com.au/e/paint-in-the-dark-uv-light-disco-party-tickets-1003407718497?aff=ebdssbdestsearch,-37.8386895,144.9385483
Intensive Toilet training,2024-12-06,18:00,Melbourne,"Melbourne Melbourne, VIC 3002",https://www.eventbrite.com.au/e/intensive-toilet-training-tickets-1038525065427?aff=ebdssbdestsearch,-37.8161444,144.9804594
OFFAIAH at Circus - Seeing Double Fridays,2024-12-06,22:00,Circus Bar,"199 Commercial Road South Yarra, VIC 3141",https://www.eventbrite.com.au/e/offaiah-at-circus-seeing-double-fridays-tickets-1077114481409?aff=ebdssbdestsearch,-37.8465589,144.993086
Ben Camden - 'Sunflowers' EP Launch - Melbourne,2024-12-06,06:30,One2three Bar,"123 Queens Parade Clifton Hill, VIC 3068",https://www.eventbrite.com.au/e/ben-camden-sunflowers-ep-launch-melbourne-tickets-1028557441997?aff=ebdssbdestsearch,-37.7893396,144.9901958
OLD & RARE Wine Tastings with Sommelier Antony,2024-12-06,19:00,"Life's Too Short Bar, Tribeca Arcade, Victoria Parade, East Melbourne VIC, Australia","412 Victoria Parade #Shop 2 East Melbourne, VIC 3002",https://www.eventbrite.com.au/e/old-rare-wine-tastings-with-sommelier-antony-tickets-850006049977?aff=ebdssbdestsearch,-37.8096207,144.985273
BNI Horizon Networking,2024-12-06,06:45,True South,"298 Beach Road Black Rock, VIC 3193",https://www.eventbrite.com.au/e/bni-horizon-networking-tickets-1022460947217?aff=ebdssbdestsearch,-37.975729,145.0164627
Meet People Social Melbourne | Cultural International Party,2024-12-06,17:30,215 Queen's Restaurant and Bar Melbourne,"215 Queen Street Melbourne, VIC 3000",https://www.eventbrite.com.au/e/meet-people-social-melbourne-cultural-international-party-tickets-951030677357?aff=ebdssbdestsearch,-37.8137947,144.9598607
Tou-Can 'Space' Single Launch,2024-12-06,19:30,280 Sydney Rd,"280 Sydney Road Brunswick, VIC 3056",https://www.eventbrite.com.au/e/tou-can-space-single-launch-tickets-1089658220069?aff=ebdssbdestsearch,-37.7711488,144.9616353
GT Events Melbourne,2024-12-06,18:00,Click co. Coffee,"3 Freshwater Place #Shop 16r Southbank, VIC 3006",https://www.eventbrite.com/e/gt-events-melbourne-tickets-1078568169429?aff=ebdssbdestsearch,-37.82152050000001,144.9624773
"Basement Comedy Club: Friday/Saturday, December 6/7",2024-12-06,20:00,Basement Comedy Club,"120 Exhibition Street Melbourne, VIC 3000",https://www.eventbrite.com.au/e/basement-comedy-club-fridaysaturday-december-67-tickets-1061088808189?aff=ebdssbdestsearch,-37.8128722,144.9712049
"Bollywood Club - BALLE 101 at Crown, Melbourne",2024-12-06,21:30,Crown Melbourne,"8 Whiteman Street Southbank, VIC 3006",https://www.eventbrite.com.au/e/bollywood-club-balle-101-at-crown-melbourne-tickets-1054755906309?aff=ebdssbdestsearch,-37.82343669999999,144.9580861
Rnb Pop and Girlie Hip Hop Fridays !,2024-12-06,19:00,Circle.,"36 Saint Edmonds Road #Level 1 Prahran, VIC 3181",https://www.eventbrite.com/e/rnb-pop-and-girlie-hip-hop-fridays-tickets-1010340304047?aff=ebdssbdestsearch,-37.8499197,144.992012
Responding to Disclosures of Sexual Assault Workshop,2024-12-06,09:30,"Ground level (Room Balam Balam), 210 Lonsdale Street, Melbourne, VIC 3000","210 Lonsdale Street Melbourne, VIC 3000",https://www.eventbrite.com.au/e/responding-to-disclosures-of-sexual-assault-workshop-tickets-914389903817?aff=ebdssbdestsearch,-37.8108823,144.9657655
Art at Aura Cafe for Toddler and Pre-School Kids,2024-12-06,10:00,388 Malvern Rd,"388 Malvern Road Prahran, VIC 3181",https://www.eventbrite.com.au/e/art-at-aura-cafe-for-toddler-and-pre-school-kids-tickets-1001091891797?aff=ebdssbdestsearch,-37.84777,144.999497
Christmas Wreath making workshop,2024-12-06,18:30,44 Porter St,"44 Porter Street Prahran, VIC 3181",https://www.eventbrite.co.nz/e/christmas-wreath-making-workshop-tickets-1086551648229?aff=ebdssbdestsearch,-37.8482894,144.9905673
Brown Tech,2024-12-06,22:00,Chaise Lounge,"105 Queen Street #Basement Melbourne, VIC 3000",https://www.eventbrite.com.au/e/brown-tech-tickets-1093460362379?aff=ebdssbdestsearch,-37.816116,144.960926
Melbourne Magic Show - Impossible Occurrences,2024-12-06,19:30,Melbourne Marriott Hotel,"Cnr Lonsdale & Exhibition St Melbourne, VIC 3000",https://www.eventbrite.com.au/e/melbourne-magic-show-impossible-occurrences-tickets-947627648807?aff=ebdssbdestsearch,-37.8100597,144.9697004
Forro Dance Classes at Dsoul Studio - Spring Edition,2024-12-06,06:30,Dsoul Dance Studio,"439 Elizabeth Street #1 Melbourne, VIC 3000",https://www.eventbrite.com.au/e/forro-dance-classes-at-dsoul-studio-spring-edition-tickets-1038724241167?aff=ebdssbdestsearch,-37.808745,144.9604711
VIC - PMB X HACIENDA LA ESMERALDA,2024-12-06,17:00,Zest Coffee Tasting Experience Studio,"67 North Street Richmond, VIC 3121",https://www.eventbrite.com.au/e/vic-pmb-x-hacienda-la-esmeralda-tickets-1098261964099?aff=ebdssbdestsearch,-37.816371,145.012307
Euphoric Beats,2024-12-06,20:00,Bad Decisions Bar,"46 Johnston Street Fitzroy, VIC 3065",https://www.eventbrite.com.au/e/euphoric-beats-tickets-1098349215069?aff=ebdssbdestsearch,-37.7982682,144.9762913
"Pop, Bubble, Fizz! Champagne & Sparkling Masterclass | Melbourne",2024-12-07,14:00,Le M√©ridien Melbourne,"20 Bourke Street Melbourne, VIC 3000",https://www.eventbrite.com.au/e/pop-bubble-fizz-champagne-sparkling-masterclass-melbourne-tickets-1014159025947?aff=ebdssbdestsearch,-37.8113901,144.9722393
ALLER REVIENS SEASON 3,2024-12-07,21:00,Chaise Lounge,"105 Queen Street Basement Melbourne, VIC 3000",https://www.eventbrite.com/e/aller-reviens-season-3-tickets-1061209739899?aff=ebdssbdestsearch,-37.816116,144.960926
"Black Aces live at Cherry Bar, SAT Dec 7th",2024-12-07,20:00,"Cherry Bar, Little Collins Street, Melbourne VIC, Australia","68 Little Collins Street Melbourne, VIC 3000",https://www.eventbrite.com.au/e/black-aces-live-at-cherry-bar-sat-dec-7th-tickets-1054472087399?aff=ebdssbdestsearch,-37.8129293,144.9714986
9D Breathwork - Sacred cacao & blue lotus - Vibrational sound healing,2024-12-07,10:00,Vine & Branches Personal Growth Centre Inc.,"27 Bonds Road Lower Plenty, VIC 3093",https://www.eventbrite.com.au/e/9d-breathwork-sacred-cacao-blue-lotus-vibrational-sound-healing-tickets-1072017466099?aff=ebdssbdestsearch,-37.7512457,145.1126917
The Shapeshifters - POOF DOOF Melbourne Sat 7 Dec,2024-12-07,22:00,Chasers Nightclub,"386 Chapel Street South Yarra, VIC 3141",https://www.eventbrite.com.au/e/the-shapeshifters-poof-doof-melbourne-sat-7-dec-tickets-1050221911007?aff=ebdssbdestsearch,-37.8459028,144.9947039
Match & Mingle,2024-12-07,20:00,The Valiant Cocktail Bar,"412 Little Collins Street Melbourne, VIC 3000",https://www.eventbrite.com.au/e/match-mingle-tickets-1085869156879?aff=ebdssbdestsearch,-37.8157453,144.9607827
Open Heart Kirtan @ The Open Space,2024-12-07,16:00,The Open Space,"11 Acacia Place Abbotsford, VIC 3067",https://www.eventbrite.com.au/e/open-heart-kirtan-the-open-space-tickets-1075489852099?aff=ebdssbdestsearch,-37.8117719,145.0141432
Another Night Of Global Dance Extravaganza 2024,2024-12-07,17:00,Ela Rose Studios,"20 Chingford Street Fairfield, VIC 3078",https://www.eventbrite.com.au/e/another-night-of-global-dance-extravaganza-2024-tickets-1034651369097?aff=ebdssbdestsearch,-37.7696884,145.0239564
"Invite Only's ""Celebration"" 2nd birthday",2024-12-07,16:00,The Carlton Club,"193 Bourke Street Melbourne, VIC 3000",https://www.eventbrite.com.au/e/invite-onlys-celebration-2nd-birthday-tickets-1021438639467?aff=ebdssbdestsearch,-37.8132289,144.9676633
MTG - Foundations DRAFT - Gameology CLAYTON SOUTH - 07/12/2024,2024-12-07,11:30,Gameology,"12 Eileen Road Clayton South, VIC 3169",https://www.eventbrite.com.au/e/mtg-foundations-draft-gameology-clayton-south-07122024-tickets-1054436440779?aff=ebdssbdestsearch,-37.9512104,145.1347381
Australian National Jigsaw Puzzle Championships 2024,2024-12-07,9:00,State Sport Centres - MSAC,"30 Aughtie Drive Albert Park, VIC 3206",https://www.eventbrite.com.au/e/australian-national-jigsaw-puzzle-championships-2024-tickets-896814946647?aff=ebdssbdestsearch,-37.8393229,144.9635459
Mindful Calligraphy Workshop for Beginners,2024-12-07,10:00,HEER POTTERY ART,"31 Clarice Road #unit3/29 Box Hill South, VIC 3128",https://www.eventbrite.com.au/e/mindful-calligraphy-workshop-for-beginners-tickets-1029466370627?aff=ebdssbdestsearch,-37.833062,145.1337404
Retro28s - THE FINALE - FINAL EVER RETRO28'S | Over 28s Night Melb,2024-12-07,20:30,Deluxe Bar,"595 Mount Alexander Road Moonee Ponds, VIC 3039",https://www.eventbrite.com.au/e/retro28s-the-finale-final-ever-retro28s-over-28s-night-melb-tickets-1076948665449?aff=ebdssbdestsearch,-37.768313,144.925046
FCCV Christmas Festa,2024-12-07,9:30,Veneto Club,"191 Bulleen Road Bulleen, VIC 3105",https://www.eventbrite.com.au/e/fccv-christmas-festa-tickets-1082864359449?aff=ebdssbdestsearch,-37.7721484,145.0777156
GLITCH - GLITCHMAS 2024!,2024-12-07,21:00,Inflation Entertainment Complex,"60 King Street Melbourne, VIC 3000",https://www.eventbrite.com.au/e/glitch-glitchmas-2024-tickets-1095892246209?aff=ebdssbdestsearch,-37.8188863,144.9571605
Pullman's Private Whisky & Chocolate Masterclass,2024-12-07,18:00,192 Wellington Parade,"192 Wellington Parade East Melbourne, VIC 3002",https://www.eventbrite.com.au/e/pullmans-private-whisky-chocolate-masterclass-tickets-1077929348699?aff=ebdssbdestsearch,-37.8158404,144.9833174
"Breathwork Journey Within - Release, Recharge & Rediscover Yourself.",2024-12-07,11:00,Centre of You,"Upstairs, 217 Chapel St Prahran Melbourne, VIC 3181",https://www.eventbrite.com.au/e/breathwork-journey-within-release-recharge-rediscover-yourself-tickets-1072005700909?aff=ebdssbdestsearch,-37.8509316,144.9933031
"Painting for Purpose: Sip, Create, and Support REACH Siem Reap",2024-12-07,13:00,Prince Alfred Hotel,"355 Bay Street Port Melbourne, VIC 3207",https://www.eventbrite.com/e/painting-for-purpose-sip-create-and-support-reach-siem-reap-registration-1085870240119?aff=ebdssbdestsearch,-37.8353732,144.944953
TRVE KVLT II - HEAVY & HARDCORE,2024-12-07,20:30,Laundry Bar,"50 Johnston Street Fitzroy, VIC 3065",https://www.eventbrite.com.au/e/trve-kvlt-ii-heavy-hardcore-tickets-1095817061329?aff=ebdssbdestsearch,-37.79831,144.976368
RnR Fiesta - RnB & Reggaeton Lat√≠n Hits,2024-12-07,22:00,The George on Collins,"162-168 Collins Street Melbourne, VIC 3000",https://www.eventbrite.com/e/rnr-fiesta-rnb-reggaeton-latin-hits-tickets-1077925276519?aff=ebdssbdestsearch,-37.8148781,144.9680956
Queens of the Pool  2024 hosted by Art Simone,2024-12-07,20:30,Sircuit Bar,"103-105 Smith Street Fitzroy, VIC 3065",https://www.eventbrite.com.au/e/queens-of-the-pool-2024-hosted-by-art-simone-tickets-1054749396839?aff=ebdssbdestsearch,-37.80578,144.982912
"SATURDAY - Fitzroy Market (October, November, December 2024)",2024-12-07,09:00,Fitzroy Mills Market,"75 Rose Street Fitzroy, VIC 3065",https://www.eventbrite.com.au/e/saturday-fitzroy-market-october-november-december-2024-tickets-1003297017387?aff=ebdssbdestsearch,-37.7956693,144.9779514
Nocturne (Sat 1:00pm),2024-12-07,13:00,Transit Dance (Brunswick),"64 Dawson Street Brunswick, VIC 3056",https://www.eventbrite.com.au/e/nocturne-sat-100pm-tickets-1045288184097?aff=ebdssbdestsearch,-37.7701752,144.9559255
"KALA CHASHMA At Inflation Nightclub, Melbourne",2024-12-07,22:00,Inflation Nightclub,"60 King Street Melbourne, VIC 3000",https://www.eventbrite.com.au/e/kala-chashma-at-inflation-nightclub-melbourne-tickets-1082825613559?aff=ebdssbdestsearch,-37.8188863,144.9571605
"Lunch, Games & Craft with Santa 7th & 14th Dec @ 11am",2024-12-07,11:00,M-City Shopping Centre,"2125 Princes Highway #2107 Clayton, VIC 3168",https://www.eventbrite.com/e/lunch-games-craft-with-santa-7th-14th-dec-11am-tickets-1095750783089?aff=ebdssbdestsearch,-37.920929,145.1403919
Screen Printing Workshops at Woods Street Arts Space,2024-12-07,10:00,Woods Street Arts Space,"44 Woods Street Laverton, VIC 3028",https://www.eventbrite.com.au/e/screen-printing-workshops-at-woods-street-arts-space-tickets-970248849427?aff=ebdssbdestsearch,-37.8621226,144.7721641
Rattlincane  at The Lomond Hotel,2024-12-07,21:00,The Lomond Hotel,"225 Nicholson Street Brunswick East, VIC 3057",https://www.eventbrite.com.au/e/rattlincane-at-the-lomond-hotel-tickets-1094974641629?aff=ebdssbdestsearch,-37.7670861,144.9800057
"The Funk Factory - Ft Kodiak Kid, Wilma, Swim Inc (NSW) + MORE!",2024-12-07,15:00,Top Yard Rooftop,"King Street #Rear 60 Melbourne, VIC 3000",https://www.eventbrite.com/e/the-funk-factory-ft-kodiak-kid-wilma-swim-inc-nsw-more-tickets-1036278646327?aff=ebdssbdestsearch,-37.8134279,144.9544436
SIMULACRO DECEMBRINO,2024-12-07,22:00,101 Little Bourke St,"101 Little Bourke Street Melbourne, VIC 3000",https://www.eventbrite.com.au/e/simulacro-decembrino-tickets-998900617637?aff=ebdssbdestsearch,-37.8113783,144.9695903
"[MEL] MEMORIES X 07.12.2024 | QUOC THIEN, PHUONG THAO, HUYNH TU, MINH KHA",2024-12-07,7:30,Golf Square Sunshine,"8 Annastasia Way Sunshine North, VIC 3020",https://www.eventbrite.com.au/e/mel-memories-x-07122024-quoc-thien-phuong-thao-huynh-tu-minh-kha-tickets-1044580888557?aff=ebdssbdestsearch,-37.77493547,144.8274425703173
Melbourne Mingle | Traffic Light Party 2024,2024-12-07,20:00,The Black Rabbit,"85 Queen Street Melbourne, VIC 3000",https://www.eventbrite.com.au/e/melbourne-mingle-traffic-light-party-2024-tickets-1072888050039?aff=ebdssbdestsearch,-37.81889,144.9625902
"Christmas Craft: Personalised handmade Gifts, Cards, Decorations and more!",2024-12-07,09:30,"The Stables, 19 Duke Street, Richmond VIC, Australia","19 Duke Street Richmond, VIC 3121",https://www.eventbrite.com.au/e/christmas-craft-personalised-handmade-gifts-cards-decorations-and-more-tickets-1072732123659?aff=ebdssbdestsearch,-37.823251,145.0039372
BATTLE ROYALE: FACE 2 FACE,2024-12-07,21:00,My Aeon,"791 Sydney Rd, Brunswick Melbourne, VIC 3056",https://www.eventbrite.com.au/e/battle-royale-face-2-face-tickets-1082861711529?aff=ebdssbdestsearch,-37.7581868,144.9633301
ALWAYS LIVE Presents Jamaica Music and Food,2024-12-07,11:00,Seaworks Maritime Precinct,"82 Nelson Place Williamstown, VIC 3016",https://www.eventbrite.com.au/e/always-live-presents-jamaica-music-and-food-tickets-947617137367?aff=ebdssbdestsearch,-37.8634293,144.9069007
Future Practice Owners Symposium,2024-12-07,7:00,Pullman Melbourne On The Park,"192 Wellington Parade East Melbourne, VIC 3002",https://www.eventbrite.com.au/e/future-practice-owners-symposium-tickets-952993438027?aff=ebdssbdestsearch,-37.8158404,144.9833174
"Flamingo Speed Dating, Brunch Edition- Dec 7th, LOEV, Moorabbin",2024-12-07,12:30,LOEV,"77 Keys Road Moorabbin, VIC 3189",https://www.eventbrite.com.au/e/flamingo-speed-dating-brunch-edition-dec-7th-loev-moorabbin-tickets-1027634270767?aff=ebdssbdestsearch,-37.9484271,145.067727
Eat The Beat : Together,2024-12-07,22:00,New Guernica,"64 Smith Street Collingwood, VIC 3066",https://www.eventbrite.com.au/e/eat-the-beat-together-tickets-1090396618639?aff=ebdssbdestsearch,-37.8062529,144.9832565
Nurture and Reflect  Pregnancy Circle,2024-12-07,15:00,"Think.Focus.Act, Newport, VIC Australia","33 Challis St Newport, VIC 3015",https://www.eventbrite.com.au/e/nurture-and-reflect-pregnancy-circle-tickets-1094274627869?aff=ebdssbdestsearch,-37.846191,144.872486
‚ÄòFull of Heart Music Studios‚Äô End of Year Recital!,2024-12-07,05:45,Australian Piano Warehouse | Melbourne,"200 Rosslyn Street West Melbourne, VIC 3003",https://www.eventbrite.com.au/e/full-of-heart-music-studios-end-of-year-recital-tickets-1057816891799?aff=ebdssbdestsearch,-37.8096403,144.9481289
Sun & Moon Heart Circle,2024-12-07,12:00,29 Ruskin St,"29 Ruskin Street Elwood, VIC 3184",https://www.eventbrite.com.au/e/sun-moon-heart-circle-tickets-1063998731849?aff=ebdssbdestsearch,-37.8752812,144.9827616
The St Kilda Bar Crawl - Christmas Edition,2024-12-07,19:00,Red Eye Bar,"17 Carlisle Street St Kilda, VIC 3182",https://www.eventbrite.com.au/e/the-st-kilda-bar-crawl-christmas-edition-tickets-1097840934789?aff=ebdssbdestsearch,-37.8672306,144.9801502
More effective than therapy: A Fresh New Chapter course,2024-12-07,11:00,Yoga Cave,"1/51 Wadham Parade Mount Waverley, VIC 3149",https://www.eventbrite.com.au/e/more-effective-than-therapy-a-fresh-new-chapter-course-tickets-1006506296427?aff=ebdssbdestsearch,-37.8745632,145.1265482
End of year 24,2024-12-07,18:00,Arrow On Swanston,"488 Swanston Street Carlton, VIC 3053",https://www.eventbrite.com/e/end-of-year-24-tickets-1015122046367?aff=ebdssbdestsearch,-37.8055641,144.9633777
SER√úM. - 07/12/24,2024-12-07,21:00,134 Greville St,"134 Greville Street Prahran, VIC 3181",https://www.eventbrite.com.au/e/serum-071224-tickets-1089575071369?aff=ebdssbdestsearch,-37.8493753,144.9912467
"Yoga for beginners ‚Äì the ""Yoga Essentials Masterclass""",2024-12-07,14:00,Radiant Sol Yoga,"418 Bay Street Port Melbourne, VIC 3207",https://www.eventbrite.com.au/e/yoga-for-beginners-the-yoga-essentials-masterclass-tickets-800586444607?aff=ebdssbdestsearch,-37.8351246,144.9462521
Hand Stamped Christmas Cards & Giftwrap - Workshop,2024-12-07,13:00,The District Docklands,"440 Docklands Drive Docklands, VIC 3008",https://www.eventbrite.com.au/e/hand-stamped-christmas-cards-giftwrap-workshop-tickets-1080196198909?aff=ebdssbdestsearch,-37.8142926,144.9384995
Mantr Beats 7th Dec Melbourne,2024-12-07,18:30,Artful Yoga Gallery,"1 Vale Street St Kilda, VIC 3182",https://www.eventbrite.com.au/e/mantr-beats-7th-dec-melbourne-tickets-1041979618087?aff=ebdssbdestsearch,-37.866167,144.981767
Zero City,2024-12-07,19:30,280 Sydney Rd,"280 Sydney Road Brunswick, VIC 3056",https://www.eventbrite.com.au/e/zero-city-tickets-1078560225669?aff=ebdssbdestsearch,-37.7711488,144.9616353
GOGO Launch of ASTRID,2024-12-07,14:00,Mamma Chen's,"42A Albert Street Footscray, VIC 3011",https://www.eventbrite.com.au/e/gogo-launch-of-astrid-tickets-1059150009189?aff=ebdssbdestsearch,-37.80225,144.897519
"KomƒìdijizrƒÅde ""Ziuti≈Üa"". Comedy performance ""GoldFish"".",2024-12-07,16:00,"3 Dickens Street, Elwood VIC, Australia","3 Dickens Street Elwood, VIC 3184",https://www.eventbrite.com.au/e/komedijizrade-ziutina-comedy-performance-goldfish-tickets-1059285955809?aff=ebdssbdestsearch,-37.871512,144.9881269
Men Of Dreams - Melbourne,2024-12-07,18:30,60 King St,"60 King Street Melbourne, VIC 3000",https://www.eventbrite.com.au/e/men-of-dreams-melbourne-tickets-910236370487?aff=ebdssbdestsearch,-37.8188863,144.9571605
Energy In Motion - An Ecstatic Dance & Cacao Journey.,2024-12-07,18:30,Centre of You,"Upstairs, 217 Chapel St Prahran Melbourne, VIC 3181",https://www.eventbrite.com.au/e/energy-in-motion-an-ecstatic-dance-cacao-journey-tickets-1079064804879?aff=ebdssbdestsearch,-37.8509316,144.9933031
Circus - Rooftop Day Party FT. Nite Theory,2024-12-07,15:00,Circus Bar,"199 Commercial Road South Yarra, VIC 3141",https://www.eventbrite.com.au/e/circus-rooftop-day-party-ft-nite-theory-tickets-1094831182539?aff=ebdssbdestsearch,-37.8465589,144.993086
BootyBasics Werkshop,2024-12-07,11:00,Pulse Studios,"281 Carlisle Street Balaclava, VIC 3183",https://www.eventbrite.com.au/e/bootybasics-werkshop-tickets-1091764891179?aff=ebdssbdestsearch,-37.8692492,144.9959582
Pentridge Prison B & H Division COMBO Tours - November 2024 - January 2025,2024-12-07,10:30,Pentridge,"1 Champ Street Coburg, VIC 3058",https://www.eventbrite.com.au/e/pentridge-prison-b-h-division-combo-tours-november-2024-january-2025-tickets-909603627937?aff=ebdssbdestsearch,-37.7370508,144.9677596
"Bollywood Saturdays at Decibles Nightclub, Melbourne",2024-12-07,22:00,Inflation Entertainment Complex,"60 King Street Melbourne, VIC 3000",https://www.eventbrite.com.au/e/bollywood-saturdays-at-decibles-nightclub-melbourne-tickets-1083851883159?aff=ebdssbdestsearch,-37.8188863,144.9571605
Albert Park Yacht Club Christmas Party,2024-12-07,18:30,Albert Park Yacht Club,"5 Aquatic Drive South Melbourne, VIC 3206",https://www.eventbrite.com/e/albert-park-yacht-club-christmas-party-tickets-1060439265389?aff=ebdssbdestsearch,-37.8405687,144.9670874
Bakery Hill Distillery Tour & Tasting,2024-12-07,12:30,411 Macaulay Rd,"411 Macaulay Road Kensington, VIC 3031",https://www.eventbrite.com.au/e/bakery-hill-distillery-tour-tasting-tickets-800417238507?aff=ebdssbdestsearch,-37.7949212,144.9331042
OFFICIAL JAMAICA MUSIC & FOOD FESTIVAL [ JMFF ] AFTER PARTY,2024-12-07,21:00,Kindred Bandroom,"3 Harris Street Footscray, VIC 3011",https://www.eventbrite.com.au/e/official-jamaica-music-food-festival-jmff-after-party-tickets-1025343288377?aff=ebdssbdestsearch,-37.8118874,144.9008424
ReadySetGala,2024-12-07,19:00,Doncaster Secondary College,"123 Church Road Doncaster, VIC 3108",https://www.eventbrite.com/e/readysetgala-tickets-1046558172667?aff=ebdssbdestsearch,-37.783848,145.1381318
Pop Icon Dance - HOT TO GO! (Northcote),2024-12-07,14:00,SHEBANG dance + bodymove studio,"177 Beavers Road #1 Northcote, VIC 3070",https://www.eventbrite.com.au/e/pop-icon-dance-hot-to-go-northcote-tickets-1091945310819?aff=ebdssbdestsearch,-37.76567989999999,144.9864456
Butt Hole,2024-12-07,20:30,The Butterfly Club,"5 Carson Place Melbourne, VIC 3000",https://www.eventbrite.co.uk/e/butt-hole-tickets-952511015087?aff=ebdssbdestsearch,-37.8154472,144.9652725
"Breakthrough Breathwork, Sound Healing and Cacao Ceremony",2024-12-07,11:30,Yoga at The Lucia Studio | Yoga Studio Williamstown,"95 Ferguson Street Williamstown, VIC 3016",https://www.eventbrite.com.au/e/breakthrough-breathwork-sound-healing-and-cacao-ceremony-tickets-1061865170309?aff=ebdssbdestsearch,-37.859053,144.896702
Play with Clay | Melbourne Clay and Sip Class,2024-12-07,13:45,Paint for Fun's Studios,"252 Graham Street Port Melbourne, VIC 3207",https://www.eventbrite.com.au/e/play-with-clay-melbourne-clay-and-sip-class-tickets-1003409042457?aff=ebdssbdestsearch,-37.8386778,144.9385789
Design your own Holiday Greeting Card Workshop,2024-12-07,10:00,Prahran PLACE,"40 Grattan Street Prahran, VIC 3181",https://www.eventbrite.com.au/e/design-your-own-holiday-greeting-card-workshop-tickets-1054574042349?aff=ebdssbdestsearch,-37.8473197,144.9917448
BROOKLYN SATURDAYS - RNB HIPHOP THROWBACKS PARTY LATIN,2024-12-07,21:00,The Black Rabbit,"85 Queen Street Melbourne, VIC 3000",https://www.eventbrite.com/e/brooklyn-saturdays-rnb-hiphop-throwbacks-party-latin-tickets-932351106257?aff=ebdssbdestsearch,-37.81636779999999,144.9611486
Pentridge Prison B Division Tours - November  2024 - January 2025,2024-12-07,10:30,Pentridge,"1 Champ Street Coburg, VIC 3058",https://www.eventbrite.com.au/e/pentridge-prison-b-division-tours-november-2024-january-2025-tickets-909565925167?aff=ebdssbdestsearch,-37.7370508,144.9677596
Lerdsila MuayThai Seminar,2024-12-07,13:00,Invictus Mixed Martial Arts,"2C Assembly Drive Tullamarine, VIC 3043",https://www.eventbrite.com.au/e/lerdsila-muaythai-seminar-tickets-1053050461277?aff=ebdssbdestsearch,-37.7131337,144.863238
"Hypnobirthing, Monash Clayton, Saturday December 7+14, 2025",2024-12-07,09:30,"Monash Medical Centre, Clayton Road, Clayton","246 Clayton Road Clayton, VIC 3168",https://www.eventbrite.com/e/hypnobirthing-monash-clayton-saturday-december-714-2025-tickets-1042507366597?aff=ebdssbdestsearch,-37.9205757,145.1227608
BONITA! Fiesta Latina,2024-12-07,20:30,160-162 Lygon St,"160-162 Lygon Street Carlton, VIC 3053",https://www.eventbrite.com.au/e/bonita-fiesta-latina-tickets-1049558516777?aff=ebdssbdestsearch,-37.8034379,144.9667234
Paint And Sip| Melbourne Working Holiday Girls,2024-12-07,18:30,"Roxy's Functions & Events, Alfred Place, South Melbourne VIC, Australia","2 Alfred Place South Melbourne, VIC 3205",https://www.eventbrite.com.au/e/paint-and-sip-melbourne-working-holiday-girls-tickets-1094772356589?aff=ebdssbdestsearch,-37.8314108,144.9592778
MANKIND (TAS) Take Stay Gold,2024-12-07,19:00,Stay Gold,"133 Sydney Rd Brunswick Melbourne, VIC 3056",https://www.eventbrite.com.au/e/mankind-tas-take-stay-gold-tickets-1094820901789?aff=ebdssbdestsearch,-37.7743822,144.9606172
"Clayton Childbirth education-Labour, Birth & Baby: 7th of Dec, 2024",2024-12-07,08:30,246 Clayton Rd,"246 Clayton Road Clayton, VIC 3168",https://www.eventbrite.com/e/clayton-childbirth-education-labour-birth-baby-7th-of-dec-2024-tickets-1036562555507?aff=ebdssbdestsearch,-37.9205757,145.1227608
One Spirit Africa @ BAR OUSSOU! ,2024-12-07,22:00,Bar Oussou,"653 Sydney Rd, Brunswick VIC 3056, Australia",https://www.facebook.com/events/3235245866617350/,-37.7618155,144.9628753
Tom Waits Day ,2024-12-07,19:00,Ragtime Tavern,"206 Tyler St, Preston VIC 3072, Australia",https://www.facebook.com/events/576870491358087/,-37.7310367,145.0142411
GOGO Group launch event ‚ÄúASTRID‚Äù ~ local music ~ vintage fashion,2024-12-07,0:00,Mamma Chen's,"42A Albert St, Footscray VIC 3011, Australia",https://www.facebook.com/events/523681077163372/,-37.8047552,144.89727240000002
MDR Million Dollar Riff... Farewell Gig,2024-12-07,20:00,Lucky 13 Garage,"8 Cochranes Rd, Moorabbin VIC 3189, Australia",https://www.facebook.com/events/571689638547512/,-37.94349189,145.07036236060654
Jemma Cher,2024-12-07,18:00,Bird's Basement,"11 Singers Ln, Melbourne VIC 3000, Australia",https://www.facebook.com/events/505689158774765/,-37.81114416,144.95680390283175
Eat The Beat : Together,2024-12-07,0:00,New Guernica,"64 Smith St, Collingwood VIC 3066, Australia",https://www.facebook.com/events/557595343686869/,-37.80624775,144.98331211946754
"(Sat, Dec 7) THE CARTRIDGE FAMILY (George Lane Matinee Sessions)",2024-12-07,0:00,George Lane St Kilda,"1 George Ln, St Kilda VIC 3182, Australia",https://www.facebook.com/events/1235450207724200/,-37.85997305,144.9780306
Vox Chops | Brunswick Ballroom,2024-12-07,13:00,Brunswick Ballroom,"314 Sydney Rd, Brunswick VIC 3056, Australia",https://www.facebook.com/events/920552363157486/,-37.7704205,144.9617083
LandDownUnder In Concert - When AusMusic Took The 80's By Storm | Brunswick Ballroom,2024-12-07,18:30,Brunswick Ballroom,"314 Sydney Rd, Brunswick VIC 3056, Australia",https://www.facebook.com/events/1946164542524493/,-37.7704205,144.9617083
FULTON STREET 'Hard Truths' Album Launch ,2024-12-07,0:00,Wax Music Lounge,"250 Flinders St, Melbourne VIC 3000, Australia",https://www.facebook.com/events/478619644599035/,-37.8176298,144.9661635
Gordon Koang,2024-12-07,14:00,Retreat Hotel,"Level 1/280 Sydney Rd, Brunswick VIC 3056, Australia",https://www.facebook.com/events/585286370841289/,-37.7711487,144.9615949
SKA Legends = Double trouble!,2024-12-07,0:00,THE CURTIN (John Curtin hotel),"29 Lygon St, Carlton VIC 3053, Australia",https://www.facebook.com/events/297884510062494/,-37.8061581,144.9657057
Bachata Sensual Melbourne Weekender - Saturday party,2024-12-07,19:30,La Encantada Collective,"69 Abbotsford Street West Melbourne, VIC 3003",https://www.eventbrite.com.au/e/bachata-sensual-melbourne-weekender-saturday-party-tickets-1092702244829?aff=ebdssbdestsearch,-37.8064292,144.9443447
150 BPM X SALTARE PRES: V:SONNTAG [GERMANY],2024-12-07,19:00,Howler,"7-11 Dawson St, Brunswick VIC 3056, Australia",https://www.facebook.com/events/1926736231145832/,-37.7720304,144.9596527
Kingston Farmers' Market,2024-12-07,0:00,Kingston City Hall,"979-985 Nepean Hwy, Moorabbin VIC 3189, Australia",https://www.facebook.com/events/771688524974680/,-37.93372508,145.0352972005879
"DISGRUNTLED CIVIL SERVANT, UNSCORED, ZE WISENHEIMER & FOURTH - LIVE AT MAMMA CHEN‚ÄôS",2024-12-07,19:00,Mamma Chen's,"42A Albert St, Footscray VIC 3011, Australia",https://www.facebook.com/events/881659227388486/,-37.8047552,144.89727240000002
Dirty Rats Xmas Break Up with Special Guests New Age ! Wayne's back !,2024-12-07,0:00,Mr Boogie Man Bar,"160 Hoddle St, Abbotsford VIC 3067, Australia",https://www.facebook.com/events/454925357235617/,-37.80245,144.99295304614787
Ramble Tamble Christmas Show @ Oakleigh Music Hall,2024-12-07,20:30,Oakleigh Carnegie RSL,"95/97 Drummond St, Oakleigh VIC 3166, Australia",https://www.facebook.com/events/432473559634394/,-37.8968576,145.08963741959553
Section 8 x Scuffed Recordings: Hedchef 'Time's Up' Release Party,2024-12-07,0:00,Section 8,"27-29 Tattersalls Ln, Melbourne VIC 3000, Australia",https://www.facebook.com/events/1008760291008021/,-37.8117457,144.965405
Wombatuque Farewell to Open Studio Party!,2024-12-07,00:00,Open Studio,"204 High St, Northcote VIC 3070, Australia",https://www.facebook.com/events/1675657812977875/,-37.7742382,144.9981587
(SOLD OUT) Frankie Valli & The 4 Seasons VS. Beach Boys | Dinner & Show,2024-12-07,0:00,arcobar heatherton,"8 Arco Ln, Heatherton VIC 3202, Australia",https://www.facebook.com/events/1011593337087604/,-37.94673685,145.07837928457485
A CRACKER KRANSKY CHRISTMAS with THE KRANSKY SISTERS | MEMO Music Hall - MELBOURNE,2024-12-07,0:00,MEMO Music Hall,"88 Acland St, St Kilda VIC 3182, Australia",https://www.facebook.com/events/1077738403774124/?event_time_id=1113987773482520,-37.8671902,144.9786817
MELBOURNE - 10 YEARS ,2024-12-07,20:00,The Last Chance,"238 Victoria St, Melbourne VIC 3000, Australia",https://www.facebook.com/events/811060947699669/,-37.8059962,144.9585654
Claire Birchall's  'The Haunting' Album Launch,2024-12-07,20:00,Cactus Room,"614 High St, Thornbury VIC 3071, Australia",https://www.facebook.com/events/1739497739930389/,-37.76125825,145.00041662186553
TERAMAZE w/Order Of Owls // Paeon // Adularia,2024-12-07,20:00,The Workers Club,"51 Brunswick St, Fitzroy VIC 3065, Australia",https://www.facebook.com/events/967993308679456/,-37.8055776,144.9769450659087
"Michael Ward Australian Tour - Workers Club, Fitzroy with Ally Row + HAZEL & The thief",2024-12-07,0:00,The Workers Club,"51 Brunswick St, Fitzroy VIC 3065, Australia",https://www.facebook.com/events/542160445024593/,-37.8055776,144.9769450659087
"ùêàùêßùêüùê¢ùêßùê¢ùê≠ùê≤ ùêíùê®ùêßùê† (ùêîùêíùêÄ) | Night cat, Melbourne",2024-12-07,19:00,The Night Cat,"137-141 Johnston St, Fitzroy VIC 3065, Australia",https://www.facebook.com/events/437216939124877/,-37.7982971,144.978128
Joe Camilleri & The Black Sorrows,2024-12-07,0:00,Musicland Melbourne,"1359 Sydney Rd, Fawkner VIC 3060, Australia",https://www.facebook.com/events/504460198628939/,-37.6916774,144.9585701581541
Official JMFF After Party,2024-12-07,21:00,Kindred Bandroom,"3 Harris St, Footscray VIC 3011, Australia",https://www.facebook.com/events/1209798760167245/,-37.8119001,144.9008247
SCARES: Live at the Bergy Bandroom w. Queen Hyena & Gull,2024-12-07,14:00,Bergy Bandroom,"64 Sydney Rd, Brunswick VIC 3056, Australia",https://www.facebook.com/events/1545485366327316/,-37.776327,144.9607158
Three Cheers For Twenty Years: My Chemical Romance Night - Melbourne,2024-12-07,23:00,Stay Gold,"133 Sydney Rd, Brunswick VIC 3056, Australia",https://www.facebook.com/events/9321070574575150/,-37.7743469,144.9607404
The Show 2024 POP CHOIR Hearts Beating Loud,2024-12-07,19:30,Palais Theatre,"Lower Esplanade, St Kilda VIC 3182, Australia",https://www.facebook.com/events/529233529470528/,-37.86708671,144.97599656199426
Nursery Crimes first headline show in 17 years!,2024-12-07,20:00,Shotkickers,"744 High St, Thornbury VIC 3071, Australia",https://www.facebook.com/events/2045166809276434/,-37.75592655,145.0013923
MANKIND (Tas) Take STAY GOLD w/Lazerlips & Blue Tongue Wizard,2024-12-07,19:00,Stay Gold,"133 Sydney Rd, Brunswick VIC 3056, Australia",https://www.facebook.com/events/8741751219193848/,-37.7743469,144.9607404
"James Marriott at Northcote Theatre, Melbourne (Unlicensed All Ages)",2024-12-08,19:00,Northcote Theatre,"216 High St, Northcote VIC 3070, Australia",https://www.facebook.com/events/725997812926777/,-37.7737068,144.9982706
The Rartel & Planets Caravan At The Old Bar,2024-12-08,16:00,The Old Bar,"74-76 Johnston St, Fitzroy VIC 3065, Australia",https://www.facebook.com/events/1233080594682590/,-37.79833,144.97711
The Herberts Christmas Show @ Oakleigh Music Hall,2024-12-08,14:30,Oakleigh Carnegie RSL,"95/97 Drummond St, Oakleigh VIC 3166, Australia",https://www.facebook.com/events/740031578235967/,-37.8968576,145.08963741959553
CRAFTERNOON,2024-12-08,00:00,Mamma Chen's,"42A Albert St, Footscray VIC 3011, Australia",https://www.facebook.com/events/434407092884738/,-37.8047552,144.89727240000002
Domingo Latino - La Influencia,2024-12-08,18:45,The Night Cat,"137-141 Johnston St, Fitzroy VIC 3065, Australia",https://www.facebook.com/events/539382388707084/,-37.7982971,144.978128
 FREE SUNDAY LIVE MUSIC | Peter Sullivan Trio,2024-12-08,00:00,arcobar heatherton,"8 Arco Ln, Heatherton VIC 3202, Australia",https://www.facebook.com/events/1102114324824917/,-37.94673685,145.07837928457485
Rebecca Barnard & Billy Miller's Silly Season Singalong | MEMO Music Hall,2024-12-08,15:00,MEMO Music Hall,"88 Acland St, St Kilda VIC 3182, Australia",https://www.facebook.com/events/1431901437517606/,-37.8671902,144.9786817
***SOLD OUT*** ROSS WILSON & THE PEACENIKS,2024-12-08,14:00,Way Out West Roots Music Club,"4 Market St, Newport VIC 3015, Australia",https://www.facebook.com/events/26559182147062741/,-37.8439028,144.8823845
"Unshakable Love: A Night of Poetry, Passion & Connection ‚Äì Artist Talk.02",2024-12-08,00:00,Mamma Chen's,"42A Albert St, Footscray VIC 3011, Australia",https://www.facebook.com/events/503873429350580/,-37.8047552,144.89727240000002
Jim Moginie ,2024-12-08,18:30,Brunswick Ballroom,"314 Sydney Rd, Brunswick VIC 3056, Australia",https://www.facebook.com/events/3680713848907707/,-37.7704205,144.9617083
Bachata Sensual Master class with Aitor & Angelica Sunday 8th Dec,2024-12-08,12:00,La Encantada Collective,"69 Abbotsford Street West Melbourne, VIC 3003",https://www.eventbrite.com.au/e/bachata-sensual-master-class-with-aitor-angelica-sunday-8th-dec-tickets-1095620322879?aff=ebdssbdestsearch,-37.8064292,144.9443447
"(Sun, Dec  THE CALEDONIAN CASTAWAYS",2024-12-08,0:00,George Lane St Kilda,"1 George Ln, St Kilda VIC 3182, Australia",https://www.facebook.com/events/1073778794069623/,-37.85997305,144.9780306
"Reuben De Melo @ Melbourne Public, VIC (*ALL AGES)",2024-12-08,14:30,Melbourne Public,"11 Dukes Walk, South Wharf VIC 3006, Australia",https://www.facebook.com/events/450388088082419/,-37.82429308,144.95070613387392
"Sunday School: Blue Tongue Wizard, Wet Love, Hypnotic State",2024-12-08,0:00,Bergy Bandroom,"64 Sydney Rd, Brunswick VIC 3056, Australia",https://www.facebook.com/events/578201221256142/,-37.776327,144.9607158
THE HACKKETS // NOISE SCAVENGERS // JAMES HULLICK,2024-12-08,0:00,JOLT Arts,"342 High St, Northcote VIC 3070, Australia",https://www.facebook.com/events/891020949804153/,-37.76999425,144.99908686916982
Sabor Y Ritmo - Afro-Cuban Jazz at the Paris Cat,2024-12-08,0:00,Paris Cat Jazz Club,"6 Goldie Pl, Melbourne VIC 3000, Australia",https://www.facebook.com/events/1744326796398144/,-37.8133262,144.96060714767358
Lakeview,2024-12-08,0:00,Bad Decisions Bar,"46 Johnston St, Fitzroy VIC 3065, Australia",https://www.facebook.com/events/1098212474573374/,-37.798246,144.9762881
Sunday Fundays - The Marty Rose Band,2024-12-08,00:00,Musicland Melbourne,"1359 Sydney Rd, Fawkner VIC 3060, Australia",https://www.facebook.com/events/1596218534622690/,-37.6916774,144.9585701581541
Carols by Kingston 2024,2024-12-08,0:00,Kingston City Hall,"979-985 Nepean Hwy, Moorabbin VIC 3189, Australia",https://www.facebook.com/events/1259790941826118/,-37.93372508,145.0352972005879
Juliet Fox - Revolver Sundays,2024-12-08,21:00,Revolver Upstairs,"Level 2/229 Chapel St, Prahran VIC 3181, Australia",https://www.facebook.com/events/1724506751461831/,-37.8505902,144.9933469
Jaspar Gubbay @ BAR OUSSOU!,2024-12-08,17:00,Bar Oussou,"653 Sydney Rd, Brunswick VIC 3056, Australia",https://www.facebook.com/events/554010087363080/,-37.7618155,144.9628753
Circling Crows Album Launch,2024-12-08,14:00,Kindred Bandroom,"3 Harris St, Footscray VIC 3011, Australia",https://www.facebook.com/events/1581752352778393/,-37.8119001,144.9008247
d00b's MIXTAPE LAUNCH PARTY!,2024-12-08,19:00,Nighthawks,"136 Johnston Street Collingwood, VIC 3066",https://www.eventbrite.com/e/d00bs-mixtape-launch-party-tickets-1039868573897?aff=ebdssbdestsearch,-37.799333,144.989527
MTG - Foundations DRAFT - Gameology BRUNSWICK - 08/12/2024,2024-12-08,12:00,Gameology Brunswick,"36 Hope Street Brunswick, VIC 3056",https://www.eventbrite.com.au/e/mtg-foundations-draft-gameology-brunswick-08122024-tickets-1054467533779?aff=ebdssbdestsearch,-37.7636924,144.9595539
Sushi Sundays  at Secret Garden,2024-12-08,14:00,Secret Garden Bar,"60 Fitzroy Street #7 St Kilda, VIC 3182",https://www.eventbrite.com.au/e/sushi-sundays-at-secret-garden-tickets-1027628854567?aff=ebdssbdestsearch,-37.8592634,144.9773182
Nick Charles  & Mick Pealing with The Long Road Home at The Lomond Hotel.,2024-12-08,16:30,The Lomond Hotel,"225 Nicholson Street Brunswick East, VIC 3057",https://www.eventbrite.com.au/e/nick-charles-mick-pealing-with-the-long-road-home-at-the-lomond-hotel-tickets-1078414991269?aff=ebdssbdestsearch,-37.7670861,144.9800057
"Kirtan Fest 2024 - A Whole Day of Mantra, Chanting, Community & Love.",2024-12-08,10:00,Centre of You,"Upstairs, 217 Chapel St Prahran Melbourne, VIC 3181",https://www.eventbrite.com.au/e/kirtan-fest-2024-a-whole-day-of-mantra-chanting-community-love-tickets-1036563117187?aff=ebdssbdestsearch,-37.8509316,144.9933031
"SUNDAY - Fitzroy Market (October, November and December 2025)",2024-12-08,10:00,Fitzroy Mills Market,"75 Rose Street Fitzroy, VIC 3065",https://www.eventbrite.com.au/e/sunday-fitzroy-market-october-november-and-december-2025-tickets-1003306696337?aff=ebdssbdestsearch,-37.7956693,144.9779514
CCCS Conference 2024: Grounding Global China,2024-12-08,9:00,Sidney Myer Asia Institute,"761 Swanston Street #325 Parkville, VIC 3052",https://www.eventbrite.com.au/e/cccs-conference-2024-grounding-global-china-tickets-911006022537?aff=ebdssbdestsearch,,
Screening of John Hughes' documentary TWILIGHT TIME @ Cinema Nova,2024-12-08,16:30,Cinema Nova,"380 Lygon Street Carlton, VIC 3053",https://www.eventbrite.com/e/screening-of-john-hughes-documentary-twilight-time-cinema-nova-tickets-1052896761557?aff=ebdssbdestsearch,-37.7981335,144.9677286
Christmas Bloom Wreath Workshop by Alula Fox at BOHO LUXE MARKET,2024-12-08,10:00,The Atrium,"Flinders Street Melbourne, VIC 3000",https://www.eventbrite.com/e/christmas-bloom-wreath-workshop-by-alula-fox-at-boho-luxe-market-tickets-1085826960669?aff=ebdssbdestsearch,-37.8185815,144.9637799
The Breath Code End of Year Event,2024-12-08,14:00,infinite co studio,"14 Pakington Street St Kilda, VIC 3182",https://www.eventbrite.com.au/e/the-breath-code-end-of-year-event-tickets-1088529132939?aff=ebdssbdestsearch,-37.8655601,144.9873231
Lomond Hotel Artisan Market,2024-12-08,11:00,The Lomond Hotel,"225 Nicholson Street Brunswick East, VIC 3057",https://www.eventbrite.com.au/e/lomond-hotel-artisan-market-registration-955874746097?aff=ebdssbdestsearch,-37.7670861,144.9800057
Social Clay - Make Your Own Face Planter -  Melbourne,2024-12-08,11:00,Urth Clay Studio,"68B Bulla Road Strathmore, VIC 3041",https://www.eventbrite.com.au/e/social-clay-make-your-own-face-planter-melbourne-tickets-772716795737?aff=ebdssbdestsearch,-37.7376746,144.9064462
Nomad Living Room Hand-poke Tattoo Workshop,2024-12-08,17:30,2 King William St,"2 King William Street Fitzroy, VIC 3065",https://www.eventbrite.com/e/nomad-living-room-hand-poke-tattoo-workshop-tickets-1098001164039?aff=ebdssbdestsearch,-37.80220509999999,144.9751437
Open Day at La Trobe's Cottage,2024-12-08,13:00,La Trobe's Cottage,"Dallas Brooks Drive Melbourne, VIC 3004",https://www.eventbrite.com.au/e/open-day-at-la-trobes-cottage-tickets-911860357877?aff=ebdssbdestsearch,-37.8304573,144.9768439
Lakeview,2024-12-08,19:30,Bad Decisions Bar,"46 Johnston Street Fitzroy, VIC 3065",https://www.eventbrite.com.au/e/lakeview-tickets-1059252455609?aff=ebdssbdestsearch,-37.7982682,144.9762913
Create and Bloom Crown and Vase Workshop by Alula Fox at BOHO LUXE MARKET,2024-12-08,10:30,The Atrium,"Flinders Street Melbourne, VIC 3000",https://www.eventbrite.com/e/create-and-bloom-crown-and-vase-workshop-by-alula-fox-at-boho-luxe-market-tickets-1085808445289?aff=ebdssbdestsearch,-37.8185815,144.9637799
Bachata Beach Party Sunday 8th Dec - Bachata Sensual Melbourne Weekender,2024-12-08,17:30,West Beach Pavilion,"330A Beaconsfield Parade Saint Kilda West, VIC 3182",https://www.eventbrite.com.au/e/bachata-beach-party-sunday-8th-dec-bachata-sensual-melbourne-weekender-tickets-1092792284139?aff=ebdssbdestsearch,-37.8582372,144.9682824
Dungeons & Flagons: One-Shot (MELB),2024-12-08,13:00,Fortress Melbourne,"23 Caledonian Lane Melbourne, VIC 3000",https://www.eventbrite.com.au/e/dungeons-flagons-one-shot-melb-tickets-938010042287?aff=ebdssbdestsearch,-37.8120726,144.9637077
Sound Healing - Vibro Acoustic Sound Bath with Romy,2024-12-08,17:30,Private Studio in St Kilda East (see email for address),"Alma Road St Kilda East, VIC 3183",https://www.eventbrite.com.au/e/sound-healing-vibro-acoustic-sound-bath-with-romy-tickets-1076302793629?aff=ebdssbdestsearch,-37.8626178,145.0005983
Crystal Aura Workshop by Alula Fox at BOHO LUXE MARKET,2024-12-08,10:00,The Atrium,"Flinders Street Melbourne, VIC 3000",https://www.eventbrite.com/e/crystal-aura-workshop-by-alula-fox-at-boho-luxe-market-tickets-1085849257359?aff=ebdssbdestsearch,-37.8185815,144.9637799
"REFRESH - Let go to  Reset, Restart, Refocus",2024-12-08,10:00,116 Somerville Rd,"116 Somerville Road Yarraville, VIC 3013",https://www.eventbrite.com.au/e/refresh-let-go-to-reset-restart-refocus-tickets-1077129747069?aff=ebdssbdestsearch,-37.8131237,144.8876175
Gospel Lunch at The Lomond Hotel,2024-12-08,12:00,The Lomond Hotel,"225 Nicholson Street Brunswick East, VIC 3057",https://www.eventbrite.com.au/e/gospel-lunch-at-the-lomond-hotel-tickets-1078373116019?aff=ebdssbdestsearch,-37.7670861,144.9800057
The Witches Faire,2024-12-08,10:00,Hawthorn Arts Centre,"360 Burwood Road Hawthorn, VIC 3122",https://www.eventbrite.com/e/the-witches-faire-tickets-1023098153117?aff=ebdssbdestsearch,-37.8230335,145.03588565533943
Pentridge Prison Tours: Prisonbreak Explorers -Family Tour Nov 24- Jan 2025,2024-12-08,10:30,Pentridge,"1 Champ Street Coburg, VIC 3058",https://www.eventbrite.com.au/e/pentridge-prison-tours-prisonbreak-explorers-family-tour-nov-24-jan-2025-tickets-909551792897?aff=ebdssbdestsearch,-37.7370508,144.9677596
Moreland City Soul Revue at The Lomond Hotel.,2024-12-08,20:00,The Lomond Hotel,"225 Nicholson Street Brunswick East, VIC 3057",https://www.eventbrite.com.au/e/moreland-city-soul-revue-at-the-lomond-hotel-tickets-1083681272859?aff=ebdssbdestsearch,-37.7670861,144.9800057
Bachata Ladies' Styling workshop with Angelica,2024-12-08,13:00,La Encantada Collective,"69 Abbotsford Street West Melbourne, VIC 3003",https://www.eventbrite.com.au/e/bachata-ladies-styling-workshop-with-angelica-tickets-1096678548059?aff=ebdssbdestsearch,-37.8064292,144.9443447
Toujours L'amour - Alan Kogosowski and Galit Klas,2024-12-08,14:30,Stonnington Uniting Church,"59 Burke Road Malvern East, VIC 3145",https://www.eventbrite.com.au/e/toujours-lamour-alan-kogosowski-and-galit-klas-tickets-1008870808747?aff=ebdssbdestsearch,-37.8722218,145.0486365
Labassa Open Day 2024,2024-12-08,10:30,Labassa,"2 Manor Grove Caulfield North, VIC 3161",https://www.eventbrite.com.au/e/labassa-open-day-2024-tickets-946027151677?aff=ebdssbdestsearch,-37.8695166,145.0090308
Christmas Champagne & Seafood Brunch,2024-12-08,11:15,131 Harbour Esplanade,"131 Harbour Esplanade Docklands, VIC 3008",https://www.eventbrite.com/e/christmas-champagne-seafood-brunch-tickets-1097746753089?aff=ebdssbdestsearch,-37.81707129999999,144.9453813
Sama Sama Salu Salo - A Filipino Christmas Feast,2024-12-08,11:00,"Queen Victoria Market, Queen Street, Melbourne VIC, Australia","Queen Street Melbourne, VIC 3000",https://www.eventbrite.com.au/e/sama-sama-salu-salo-a-filipino-christmas-feast-tickets-1080279849109?aff=ebdssbdestsearch,-37.8127603,144.9597505
Friends On Purpose: Christmas Creations,2024-12-08,15:00,Two Hands Rooftop Bar & Beer Garden Eatery,"311A Victoria Street Abbotsford, VIC 3067",https://www.eventbrite.com.au/e/friends-on-purpose-christmas-creations-tickets-1086524527109?aff=ebdssbdestsearch,-37.8097957,144.995176
Conscious Connection | Friendsmas Dinner (20-40),2024-12-08,16:00,Northside Wines,"543-545 High Street Northcote, VIC 3070",https://www.eventbrite.com.au/e/conscious-connection-friendsmas-dinner-20-40-tickets-1088456455559?aff=ebdssbdestsearch,-37.7642271,144.9994439
High Cheese at Rippon Lea Estate  presented by Showtime Event Group.,2024-12-08,11:00,Rippon Lea Estate,"192 Hotham Street Elsternwick, VIC 3185",https://www.eventbrite.com.au/e/high-cheese-at-rippon-lea-estate-presented-by-showtime-event-group-tickets-1054614904569?aff=ebdssbdestsearch,-37.8786264,144.9978144
Wei‚Äôs Family  and Friends‚Äô concert (7)Yummy music 2024,2024-12-08,02:00,Eltham,"7 HILLCREST AVE ELTHAM VIC 3095 Eltham, VIC 3095",https://www.eventbrite.com.au/e/weis-family-and-friends-concert-7yummy-music-2024-tickets-1064121890219?aff=ebdssbdestsearch,-37.727643,145.1530617
MCW End Game 2024,2024-12-08,15:00,Melbourne Pavilion,"135-157 Racecourse Road Kensington, VIC 3031",https://www.eventbrite.com.au/e/mcw-end-game-2024-tickets-1006014355017?aff=ebdssbdestsearch,-37.7889557,144.9363556
"Unshakable Love: A Night of Poetry, Passion & Connection ‚Äì Artist Talk.02",2024-12-08,05:15,Mamma Chen's,"42A Albert Street Footscray, VIC 3011",https://www.eventbrite.com.au/e/unshakable-love-a-night-of-poetry-passion-connection-artist-talk02-tickets-1091836264659?aff=ebdssbdestsearch,-37.80225,144.897519
Cardfight! Vanguard - BT05 SNEAK PREVIEW - Gameology CLAYTON SOUTH - 08/12,2024-12-08,12:30,Gameology,"12 Eileen Road Clayton South, VIC 3169",https://www.eventbrite.com.au/e/cardfight-vanguard-bt05-sneak-preview-gameology-clayton-south-0812-tickets-1043395272347?aff=ebdssbdestsearch,-37.9512104,145.1347381
Republic Sundown,2024-12-08,16:00,Prince Deck,"2 Acland Street St Kilda, VIC 3182",https://www.eventbrite.com.au/e/republic-sundown-tickets-1091853516259?aff=ebdssbdestsearch,-37.8622387,144.9740006
High Tea on Little Lonsdale,2024-12-08,13:30,Dorsett Melbourne,"615 Little Lonsdale Street Melbourne, VIC 3000",https://www.eventbrite.com.au/e/high-tea-on-little-lonsdale-tickets-1081262809169?aff=ebdssbdestsearch,-37.8139857,144.9532276
Music Appreciation With Carmen Hendricks- Live at LOEV- Sun Dec 8th,2024-12-08,14:00,LOEV,"77 Keys Road Moorabbin, VIC 3189",https://www.eventbrite.com.au/e/music-appreciation-with-carmen-hendricks-live-at-loev-sun-dec-8th-tickets-1047508725797?aff=ebdssbdestsearch,-37.9484271,145.067727
V Wine Salon x Marco Dazzan 2.0,2024-12-08,14:00,V Wine Salon,"673 Bourke Street Melbourne, VIC 3000",https://www.eventbrite.com.au/e/v-wine-salon-x-marco-dazzan-20-tickets-1072851290089?aff=ebdssbdestsearch,-37.8172245,144.9540853
Paint and Sip Classes in Melbourne,2024-12-08,18:00,"555 Flinders Ln, Melbourne VIC 3000, Australia","555 Flinders Ln Melbourne, VIC 3008",https://www.eventbrite.com.au/e/paint-and-sip-classes-in-melbourne-tickets-1053155599749?aff=ebdssbdestsearch,-37.819944,144.955791
FoodSocial Italian Christmas in Abruzzo,2024-12-08,11:00,Mamma's Boy Trattoria,"10 Tripovich Street #6 Brunswick, VIC 3056",https://www.eventbrite.com.au/e/foodsocial-italian-christmas-in-abruzzo-tickets-1061776505109?aff=ebdssbdestsearch,-37.7662381,144.9617144
Morning Melodies 2024 Season,2024-12-09,0:00,Arts Centre Melbourne,"100 St Kilda Rd, Southbank VIC 3004, Australia",https://www.facebook.com/events/344932704872465/,-37.8216405,144.9683143
Microsoft Power BI 2 Days Training in Melbourne,2024-12-09,09:00,For venue details reach us at info@mangates.com,"PH: + 61(0) 2 80155605 Melbourne, VIC 3000",https://www.eventbrite.com/e/microsoft-power-bi-2-days-training-in-melbourne-tickets-842701130767?aff=ebdssbdestsearch,-37.8152065,144.963937
Agile Scrum Master 2 Days Training in Melbourne,2024-12-09,09:00,For venue details reach us at info@academyforpros.com,"PH: + 61(0) 2 80155605 Melbourne, VIC 3000",https://www.eventbrite.ca/e/agile-scrum-master-2-days-training-in-melbourne-tickets-834745906477?aff=ebdssbdestsearch,-37.8152065,144.963937
Financial and Basic Accounting Principles for PM Training in Melbourne,2024-12-09,09:00,For venue details reach us at info@academyforpros.com,"PH: + 61(0) 2 80155605 Melbourne, VIC 3000",https://www.eventbrite.ca/e/financial-and-basic-accounting-principles-for-pm-training-in-melbourne-tickets-835588296087?aff=ebdssbdestsearch,-37.8152065,144.963937
ITIL 4 Foundation - Pro  2 Days Training in Melbourne,2024-12-09,09:00,For venue details reach us at info@academyforpros.com,"PH: + 61(0) 2 80155605 Melbourne, VIC 3000",https://www.eventbrite.ca/e/itil-4-foundation-pro-2-days-training-in-melbourne-tickets-835555066697?aff=ebdssbdestsearch,-37.8152065,144.963937
Microsoft Project 2 Days Training in Melbourne,2024-12-09,09:00,"For venue details reach us at info@mangates.com, PH: + 61(0) 2 80155605","Melbourne Melbourne, VIC",https://www.eventbrite.com/e/microsoft-project-2-days-training-in-melbourne-tickets-890141506207?aff=ebdssbdestsearch,-37.8136276,144.9630576
"BC #436 (Duowe, Moovin, Dan.B)",2024-12-09,08:00,onesixone,"161 High Street Prahran, VIC 3181",https://www.eventbrite.com.au/e/bc-436-duowe-moovin-danb-tickets-1097646884379?aff=ebdssbdestsearch,-37.85173229999999,144.9936589
AgileScrum Foundation  2 Days Training in Melbourne,2024-12-09,09:00,For venue details reach us at info@academyforpros.com,"PH: + 61(0) 2 80155605 Melbourne, VIC 3000",https://www.eventbrite.ca/e/agilescrum-foundation-2-days-training-in-melbourne-tickets-835629950677?aff=ebdssbdestsearch,-37.8152065,144.963937
Xmas Toddler and Preschool Art in Williamstown,2024-12-09,10:30,Williamstown Library,"104 Ferguson Street Williamstown, VIC 3016",https://www.eventbrite.com.au/e/xmas-toddler-and-preschool-art-in-williamstown-tickets-1039841121787?aff=ebdssbdestsearch,-37.85832,144.8961172
Dec13party,2024-12-09,10:00,Coburg,"73Coburg Melb, VIC 3089",https://www.eventbrite.com/e/dec13party-tickets-1077980882839?aff=ebdssbdestsearch,-37.6666174,145.1541397
"‚ÄòSocial Sanctuary‚Äô with Bec Sykes, Elaura & Pia + Anna Schneider (solo)",2024-12-09,19:00,Northcote Social Club,"301 High St, Northcote VIC 3070, Australia",https://www.facebook.com/events/1039015651355995/,-37.771471,144.998414
Power BI Dashboard and Data Analysis 2 Days Training in Melbourne,2024-12-09,09:00,For venue details reach us at info@academyforpros.com,"PH: + 61(0) 2 80155605 Melbourne, VIC 3000",https://www.eventbrite.ca/e/power-bi-dashboard-and-data-analysis-2-days-training-in-melbourne-tickets-834700179707?aff=ebdssbdestsearch,-37.8152065,144.963937
Sound healing and Relaxation,2024-12-09,19:00,8 May Rd,"8 May Road Lalor, VIC 3075",https://www.eventbrite.com/e/sound-healing-and-relaxation-tickets-1092391936689?aff=ebdssbdestsearch,-37.6725808,145.0178349
DASA - DevOps Product Owner 2 Days Training in Melbourne,2024-12-09,09:00,For venue details reach us at info@academyforpros.com,"PH: + 61(0) 2 80155605 Melbourne, VIC 3000",https://www.eventbrite.ca/e/dasa-devops-product-owner-2-days-training-in-melbourne-tickets-835575949157?aff=ebdssbdestsearch,-37.8152065,144.963937
Funny Near The Brunny! - Free Live Comedy Every Monday,2024-12-09,00:00,Bergy Bandroom,"64 Sydney Rd, Brunswick VIC 3056, Australia",https://www.facebook.com/events/1068456871671985/?event_time_id=1068457738338565,-37.776327,144.9607158
√ñssur Mobility Clinic on the Green - Melbourne,2024-12-09,9:00,The Metropolitan Golf Club,"Golf Road Oakleigh South, VIC 3167",https://www.eventbrite.com.au/e/ossur-mobility-clinic-on-the-green-melbourne-tickets-883117246457?aff=ebdssbdestsearch,-37.9155531,145.0885854
Rowena Wise - Mondays in December at the Merri Creek Tavern,2024-12-09,20:00,The Merri Creek Tavern,"111 High St, Northcote VIC 3070, Australia",https://www.facebook.com/events/448372538303118/,-37.7794356,144.996838
Sound Bath in  a Stunning Heritage Building,2024-12-10,19:00,1/139 Nelson Pl,"139 Nelson Place #1 Williamstown, VIC 3016",https://www.eventbrite.com.au/e/sound-bath-in-a-stunning-heritage-building-tickets-1070107724009?aff=ebdssbdestsearch,-37.86339359999999,144.9046939
Melbourne Networking Function and Ethical Trade Reporting Update,2024-12-10,18:00,The Wharf Hotel Melbourne,"38 Siddeley Street #18 Docklands, VIC 3008",https://www.eventbrite.com.au/e/melbourne-networking-function-and-ethical-trade-reporting-update-tickets-1068452172209?aff=ebdssbdestsearch,-37.8224526,144.9538758
Santa Claus is Coming to Town,2024-12-10,0:00,The Clocktower Centre,"750 Mt Alexander Rd, Moonee Ponds VIC 3039, Australia",https://www.facebook.com/events/968126904794102/,-37.7656716,144.9248037207342
Harnessing AI for Marketing Innovation | Melbourne,2024-12-10,16:00,Melbourne,"Online Event Melbourne, VIC 3000",https://www.eventbrite.com.au/e/harnessing-ai-for-marketing-innovation-melbourne-tickets-1052300297517?aff=ebdssbdestsearch,-37.8152065,144.963937
DPR - The Dream Reborn Tour 2024,2024-12-10,19:00,Festival Hall,"300 Dudley St, West Melbourne VIC 3003, Australia",https://www.facebook.com/events/443224371939943/,-37.8098193,144.9508057
Condensed Milk Tuesdays,2024-12-10,00:00,Section 8,"27-29 Tattersalls Ln, Melbourne VIC 3000, Australia",https://www.facebook.com/events/3806429379629971/?event_time_id=3806429496296626,-37.8117457,144.965405
Small Group Breathwork Journey,2024-12-10,19:00,Merkaba Studio,"15 Mills Street Cheltenham, VIC 3192",https://www.eventbrite.com.au/e/small-group-breathwork-journey-tickets-1036569416027?aff=ebdssbdestsearch,-37.9560125,145.0740554
Xmas Kids Art Fun in Williamstown,2024-12-10,10:00,82-84 Ferguson St,"82-84 Ferguson Street Williamstown, VIC 3016",https://www.eventbrite.com.au/e/xmas-kids-art-fun-in-williamstown-tickets-1039842265207?aff=ebdssbdestsearch,-37.8586804,144.8974969
Beginners Contemporary Dance (Taster Class),2024-12-10,06:30,Transit Dance Studio,"64 Dawson Street Brunswick, VIC 3056",https://www.eventbrite.com.au/e/beginners-contemporary-dance-taster-class-tickets-1092215057639?aff=ebdssbdestsearch,-37.7701752,144.9559255
A Toast to 2024: Celebrating Our Favourite Wines of the Year,2024-12-10,17:00,The Vincent Wine Shop,"111 Victoria Avenue Albert Park, VIC 3206",https://www.eventbrite.com/e/a-toast-to-2024-celebrating-our-favourite-wines-of-the-year-tickets-1095787181959?aff=ebdssbdestsearch,-37.8450628,144.9508168
"Off the Record, with Cameron Hurst",2024-12-10,06:30,69 Capel St,"69 Capel Street West Melbourne, VIC 3003",https://www.eventbrite.com/e/off-the-record-with-cameron-hurst-tickets-1096855477259?aff=ebdssbdestsearch,-37.8065292,144.9547461
Comedy Centric Christmas Special,2024-12-10,06:30,level 25/25 Downie St,"25 Downie Street #level 25 Melbourne, VIC 3004",https://www.eventbrite.com.au/e/comedy-centric-christmas-special-tickets-1061699544919?aff=ebdssbdestsearch,-37.8202336,144.9555669
Church Growth International Conference Australia 2024,2024-12-10,10:00,215 Little Collins St,"215 Little Collins Street Melbourne, VIC 3000",https://www.eventbrite.co.uk/e/church-growth-international-conference-australia-2024-tickets-874160707207?aff=ebdssbdestsearch,-37.8143634,144.9668522
"CAPM Melbourne, VIC In-Person Class",2024-12-10,09:00,120 Collins St,"120 Collins Street Levels 31 & 50/120 Collins St Melbourne, VIC 3000",https://www.eventbrite.com/e/capm-melbourne-vic-in-person-class-tickets-878704868917?aff=ebdssbdestsearch,-37.8138656,144.9695281
Brava  Women Networking IN PERSON December 10th 2024 - Brighton,2024-12-10,12:00,The Deck  Brighton,"212 Bay Street Brighton, VIC 3186",https://www.eventbrite.com.au/e/brava-women-networking-in-person-december-10th-2024-brighton-tickets-853426009167?aff=ebdssbdestsearch,-37.9052818,144.999296
Sunset Kayak Tour| Melbourne Working Holiday Girls,2024-12-10,06:30,1 Boathouse Dr,"1 Boathouse Drive Melbourne, VIC 3004",https://www.eventbrite.com.au/e/sunset-kayak-tour-melbourne-working-holiday-girls-tickets-1086491969729?aff=ebdssbdestsearch,-37.8197779,144.971595
BOTTOMLESS SAKE DINNER,2024-12-10,19:00,Sakedokoro Namara,"360 Victoria Street North Melbourne, VIC 3051",https://www.eventbrite.com.au/e/bottomless-sake-dinner-tickets-1071509145699?aff=ebdssbdestsearch,-37.80549,144.9543455
December 10th 2024 In Person BNI Melbourne City Corporate Networking Event,2024-12-10,06:45,Rendezvous Hotel Melbourne,"328 Flinders Street Melbourne, VIC 3000",https://www.eventbrite.com.au/e/december-10th-2024-in-person-bni-melbourne-city-corporate-networking-event-tickets-952432028837?aff=ebdssbdestsearch,-37.81831330000001,144.9636251
In-Person LSSBB Exam Prep Course in Melbourne,2024-12-10,09:00,120 Collins St,"120 Collins Street Levels 31 & 50/120 Collins St Melbourne, VIC 3000",https://www.eventbrite.com/e/in-person-lssbb-exam-prep-course-in-melbourne-tickets-945850944637?aff=ebdssbdestsearch,-37.8138656,144.9695281
CME X Protagonist x Kitchen: Christmas Party,2024-12-10,16:00,St Kilda Sports Club,"66 Fitzroy Street St Kilda, VIC 3182",https://www.eventbrite.com.au/e/cme-x-protagonist-x-kitchen-christmas-party-tickets-1066516683109?aff=ebdssbdestsearch,-37.8586547,144.9780845
St Kilda Summer Singles - Ages 25-40 ish!,2024-12-11,19:00,Jekyll & Hyde,"175 Acland Street St Kilda, VIC 3182",https://www.eventbrite.com.au/e/st-kilda-summer-singles-ages-25-40-ish-tickets-1085004189739?aff=ebdssbdestsearch,-37.8694465,144.9802119
Speed Dating Melbourne | In-Person | Cityswoon | Ages  30-45,2024-12-11,19:00,"Public House Richmond,","433-435 Church St Richmond Melbourne, VIC 3121",https://www.eventbrite.com.au/e/speed-dating-melbourne-in-person-cityswoon-ages-30-45-tickets-1056242131649?aff=ebdssbdestsearch,-37.8262058,144.9981095
Pop-up Christmas kids event in Altona!,2024-12-11,11:00,Bezirk Cafe,"1A Millers Road Altona, VIC 3018",https://www.eventbrite.com.au/e/pop-up-christmas-kids-event-in-altona-tickets-1039877891767?aff=ebdssbdestsearch,-37.8707121,144.8379658
Positive Workplace Behaviour  - Lunch & Learn Aug 2023,2024-12-11,12:00,Online,Melbourne Melbourne,https://www.eventbrite.com.au/e/positive-workplace-behaviour-lunch-learn-aug-2023-tickets-1008858652387?aff=ebdssbdestsearch,-37.8136276,144.9630576
Artificial Intelligence / Machine Learning 3 Days Workshop in Melbourne,2024-12-11,09:00,"For venue details reach us at info@mangates.com, PH: + 61(0) 2 80155605","Melbourne Melbourne, VIC",https://www.eventbrite.com/e/artificial-intelligence-machine-learning-3-days-workshop-in-melbourne-tickets-883117637627?aff=ebdssbdestsearch,-37.8136276,144.9630576
Mums Business Networking Coffee,2024-12-11,10:00,Stables Provedore Cafe,"71 Stables Circuit Doncaster, VIC 3108",https://www.eventbrite.com/e/mums-business-networking-coffee-tickets-1094837190509?aff=ebdssbdestsearch,-37.7868438,145.1152173
Liner Shipping Game‚Ñ¢ Industry Networking Workshop,2024-12-11,12:30,GHD OFFICES,"180 Lonsdale Street Level 9 Melbourne, VIC 3000",https://www.eventbrite.com.au/e/liner-shipping-gametm-industry-networking-workshop-tickets-1066404938879?aff=ebdssbdestsearch,-37.8106946,144.9667461
(SOLD OUT) SINGSONGS: Christmas Edition Second Show,2024-12-11,0:00,arcobar heatherton,"8 Arco Ln, Heatherton VIC 3202, Australia",https://www.facebook.com/events/1272654983734462/,-37.94673685,145.07837928457485
H√§nsel und Gretel,2024-12-11,19:00,"Union Theatre, Arts and Cultural Building, The University of Melbourne, Parkville","761 Swanston Street Parkville, VIC 3052",https://www.eventbrite.com.au/e/hansel-und-gretel-tickets-940706748207?aff=ebdssbdestsearch,-37.7985202,144.9634563
Pop Icon Dance / Oh Santa! (Christmas Dance Class),2024-12-11,19:00,Transit Dance Studio,"64 Dawson Street Brunswick, VIC 3056",https://www.eventbrite.com.au/e/pop-icon-dance-oh-santa-christmas-dance-class-tickets-1091859353719?aff=ebdssbdestsearch,-37.7701752,144.9559255
Learn to Sew - PJ's,2024-12-11,18:00,Sew This Pattern Sewing Studio,"26 Horne Street Elsternwick, VIC 3185",https://www.eventbrite.com.au/e/learn-to-sew-pjs-tickets-1078798678889?aff=ebdssbdestsearch,-37.885246,145.0001915
"Cripps & Curnow LIVE at Shoppingtown Hotel, Doncaster!",2024-12-11,19:00,Shoppingtown Hotel,"19 Williamsons Road Doncaster, VIC 3108",https://www.eventbrite.com.au/e/cripps-curnow-live-at-shoppingtown-hotel-doncaster-tickets-1075300495729?aff=ebdssbdestsearch,-37.7851283,145.1227497
Melbourne speed dating for ages 26-44 by Cheeky Events Australia.,2024-12-11,19:00,The Collection Bar,"328 Bridge Road Richmond Melbourne, VIC 3121",https://www.eventbrite.com.au/e/melbourne-speed-dating-for-ages-26-44-by-cheeky-events-australia-tickets-1064083184449?aff=ebdssbdestsearch,-37.8190331,145.0022424
Electric & Four Loko Presents Summer Never Sleeps with Liam Fitzgerald,2024-12-11,19:00,Electric Bar,"265-267 Chapel st Prahran, VIC 3181",https://www.eventbrite.com.au/e/electric-four-loko-presents-summer-never-sleeps-with-liam-fitzgerald-tickets-1096876851189?aff=ebdssbdestsearch,-37.8491548,144.9935126
Construction Industry- Meet Up (Melb)- December,2024-12-11,16:30,340-344 Victoria St,"340-344 Victoria Street Richmond, VIC 3121",https://www.eventbrite.com.au/e/construction-industry-meet-up-melb-december-registration-1013439824797?aff=ebdssbdestsearch,-37.8109316,145.0027755
Meditation and Mindfulness Session - Learn to Love Yourself,2024-12-11,19:00,"Oracle of Crystals, 228 Glenferrie Road, Malvern VIC, Australia","228 Glenferrie Road Malvern, VIC 3144",https://www.eventbrite.com.au/e/meditation-and-mindfulness-session-learn-to-love-yourself-tickets-1046611562357?aff=ebdssbdestsearch,-37.8585334,145.0292064
"Next stop, creativity",2024-12-11,10:00,Deakin Burwood Corporate Centre (BCC),"221 Burwood Highway Burwood, VIC 3125",https://www.eventbrite.com.au/e/next-stop-creativity-tickets-1085075783879?aff=ebdssbdestsearch,-37.8493578,145.1148984
Sound Healing - Heart Space. Release the year - Sound Bath with Romy,2024-12-11,19:30,Private Studio in St Kilda East (see email for address),"Alma Road St Kilda East, VIC 3183",https://www.eventbrite.com.au/e/sound-healing-heart-space-release-the-year-sound-bath-with-romy-tickets-1076341559579?aff=ebdssbdestsearch,-37.8626178,145.0005983
Hansel and Gretel for Schools and Families,2024-12-11,11:00,"Union Theatre, Arts and Cultural Building, The University of Melbourne, Parkville","761 Swanston Street Parkville, VIC 3052",https://www.eventbrite.com.au/e/hansel-and-gretel-for-schools-and-families-tickets-940702385157?aff=ebdssbdestsearch,-37.7985202,144.9634563
Mikelangelo + Anushka in the Woods ,2024-12-11,00:00,Open Studio,"204 High St, Northcote VIC 3070, Australia",https://www.facebook.com/events/489326527495571/,-37.7742382,144.9981587
GAGTIME AT RAGTIME - Comedy Night,2024-12-11,20:00,Ragtime Tavern,"206 Tyler St, Preston VIC 3072, Australia",https://www.facebook.com/events/943040384351585/,-37.7310367,145.0142411
PLAY: Magicians at Work,2024-12-11,0:00,Arts Centre Melbourne,"100 St Kilda Rd, Southbank VIC 3004, Australia",https://www.facebook.com/events/7955852801173144/,-37.8216405,144.9683143
CHOOF & SATANIC DOG CUNTS,2024-12-11,19:00,The Last Chance,"238 Victoria St, Melbourne VIC 3000, Australia",https://www.facebook.com/events/555497527431855/,-37.8059962,144.9585654
The Harmonix Experience,2024-12-11,18:00,Bird's Basement,"11 Singers Ln, Melbourne VIC 3000, Australia",https://www.facebook.com/events/385777254500813/,-37.81114416,144.95680390283175
In Conversation with United Visual Artists,2024-12-11,10:00,130 Swanston St,"130 Swanston Street Melbourne, VIC 3000",https://www.eventbrite.com/e/in-conversation-with-united-visual-artists-tickets-999217665937?aff=ebdssbdestsearch,-37.8146168,144.9664898
ONE PIECE - OP-09 PRE-RELEASE - Gameology BRUNSWICK - 11/12/2024,2024-12-11,06:30,Gameology Brunswick,"36 Hope Street Brunswick, VIC 3056",https://www.eventbrite.com.au/e/one-piece-op-09-pre-release-gameology-brunswick-11122024-tickets-1052976219217?aff=ebdssbdestsearch,-37.7636924,144.9595539
Adore H√§ndel‚Äôs Potpourri - A whimsical variety soiree,2024-12-11,19:00,The Butterfly Club,"5 Carson Place Melbourne, VIC 3000",https://www.eventbrite.co.uk/e/adore-handels-potpourri-a-whimsical-variety-soiree-tickets-1068114050879?aff=ebdssbdestsearch,-37.8154472,144.9652725
Bottomless Evening Soire√©,2024-12-11,18:00,"153 Johnston Street, Collingwood VIC, Australia","153 Johnston Street Collingwood, VIC 3066",https://www.eventbrite.com/e/bottomless-evening-soiree-tickets-1093051930749?aff=ebdssbdestsearch,-37.7997248,144.9900509
Christmas Lunch at Overnewton Castle,2024-12-12,12:00,Overnewton Castle,"51 Overnewton Road Keilor, VIC 3036",https://www.eventbrite.com.au/e/christmas-lunch-at-overnewton-castle-tickets-967203139627?aff=ebdssbdestsearch,-37.7048096,144.8209018
‚ú®Compatible Speed Dating with a Chance | Ages 24-31  | Melbourne CBD‚ú®,2024-12-12,20:00,Fable Melbourne,"168 Lonsdale Street Level 13 Melbourne, VIC 3000",https://www.eventbrite.com.au/e/compatible-speed-dating-with-a-chance-ages-24-31-melbourne-cbd-tickets-1092173713979?aff=ebdssbdestsearch,-37.8105688,144.967374
Three Course Christmas Dinner at Overnewton Castle,2024-12-12,19:00,Overnewton Castle,"51 Overnewton Road Keilor, VIC 3036",https://www.eventbrite.com.au/e/three-course-christmas-dinner-at-overnewton-castle-tickets-967216278927?aff=ebdssbdestsearch,-37.7048096,144.8209018
LOVE & FORGETTING ‚Äì Tales from a Young Mixer,2024-12-12,06:30,1806,"169 Exhibition Street Melbourne, VIC 3000",https://www.eventbrite.com.au/e/love-forgetting-tales-from-a-young-mixer-tickets-1081366368919?aff=ebdssbdestsearch,-37.8116478,144.9701118
Blossoming Couture Christmas Bouquet Workshop,2024-12-12,17:00,129 Nicholson St,"129 Nicholson Street Brunswick East, VIC 3057",https://www.eventbrite.com.au/e/blossoming-couture-christmas-bouquet-workshop-tickets-1098440468009?aff=ebdssbdestsearch,-37.7723327,144.9791115
Journey to Wholeness: Gong Sound Healing at Vyve Meditation Centre (EES),2024-12-12,19:00,Vyve Meditation Centre,"266 Bolton Street #1A Eltham, VIC 3095",https://www.eventbrite.com.au/e/journey-to-wholeness-gong-sound-healing-at-vyve-meditation-centre-ees-tickets-1064900589329?aff=ebdssbdestsearch,-37.720178,145.138187
Women Of Westpac Christmas Event,2024-12-12,4:30,150 Collins St,"150 Collins Street Melbourne, VIC 3000",https://www.eventbrite.com/e/women-of-westpac-christmas-event-tickets-1040251228427?aff=ebdssbdestsearch,-37.8164276,144.9630757
Sesame Girl,2024-12-12,19:00,Stay Gold,"133 Sydney Rd Brunswick Melbourne, VIC 3056",https://www.eventbrite.com.au/e/sesame-girl-tickets-1041515319357?aff=ebdssbdestsearch,-37.7743822,144.9606172
Master of Speech Pathology Celebration and Awards Evening 2024,2024-12-12,18:00,Melbourne Business School,"200 Leicester Street Carlton, VIC 3053",https://www.eventbrite.com.au/e/master-of-speech-pathology-celebration-and-awards-evening-2024-tickets-1033125515227?aff=ebdssbdestsearch,-37.801358,144.96116515896085
